[
{"info": {"property": {"id": "UHJvcGVydHk6MjA3OTA4NzQ3MA==", "stateId": 43, "countyId": 2452, "cityId": 6181, "isFeatured": false, "zpid": 2079087470, "city": "New York", "state": "NY", "homeStatus": "FOR_RENT", "isUndisclosedAddress": false, "address": {"streetAddress": "200 W 14th St #3E", "city": "New York", "state": "NY", "zipcode": "10011", "neighborhood": "Greenwich Village", "community": null, "subdivision": null}, "isListingClaimedByCurrentSignedInUser": false, "isCurrentSignedInAgentResponsible": false, "bedrooms": 4, "bathrooms": 1, "price": 6250, "yearBuilt": null, "streetAddress": "200 W 14th St #3E", "zipcode": "10011", "adTargets": {"aamgnrc2": " 3E", "zip": "10011", "aamgnrc1": "200 W 14th St", "mlat": "40.738572", "bd": "4", "fsbid": "13501", "z_listing_image_url": "", "zusr": "true", "city": "New_York", "proptp": "mfh", "pid": "2079087470", "hood": "Greenwich_Village", "listtp": "rent_general", "zguidh": "-534717090446426766", "premieragent": "no", "price": "6250", "dma": "43", "posting_url": "", "state": "NY", "mlong": "-73.999721", "cnty": "New_York", "prange": "6000-6999"}, "solarPotential": null, "brokerId": 13501, "latitude": 40.738572, "longitude": -73.999721, "countyFIPS": null, "parcelId": null, "currency": "USD", "homeType": "MULTI_FAMILY", "homeFacts": {"aboveFactsAndFeaturesCategories": null, "atAGlanceFacts": [{"factLabel": "Date available", "factValue": "6/25"}, {"factLabel": "Type", "factValue": "Multi Family"}, {"factLabel": "Cooling", "factValue": null}, {"factLabel": "Heating", "factValue": null}, {"factLabel": "Pets", "factValue": "Contact manager"}, {"factLabel": "Parking", "factValue": "No Data"}, {"factLabel": "Laundry", "factValue": null}, {"factLabel": "Deposit & fees", "factValue": null}, {"factLabel": "Price/sqft", "factValue": null}], "categoryDetails": [{"categoryGroupName": "Rental Facts", "categories": [{"categoryName": "", "categoryFacts": [{"factLabel": "Date available", "factValue": "6/25"}, {"factLabel": "Pets", "factValue": "Contact manager"}, {"factLabel": "Posted", "factValue": "1 hour ago"}]}]}, {"categoryGroupName": "Interior Features", "categories": [{"categoryName": "Bedrooms", "categoryFacts": [{"factLabel": "Beds", "factValue": "4"}]}]}, {"categoryGroupName": "Construction", "categories": [{"categoryName": "Type and Style", "categoryFacts": [{"factLabel": null, "factValue": "Multi Family"}]}]}, {"categoryGroupName": "Other", "categories": [{"categoryName": "", "categoryFacts": [{"factLabel": null, "factValue": "No Fee, Nyc Evacuation 5"}]}]}, {"categoryGroupName": "Activity On Zillow", "categories": [{"categoryName": "", "categoryFacts": [{"factLabel": "Days on Zillow", "factValue": "Less than 1"}, {"factLabel": "Views since listing", "factValue": "14"}, {"factLabel": null, "factValue": "0 shoppers saved this home"}]}]}]}, "resoFacts": {"bedrooms": 4, "bathrooms": 1, "bathroomsFull": 0, "bathroomsThreeQuarter": 0, "bathroomsHalf": 0, "bathroomsOneQuarter": 0, "bathroomsPartial": null, "mainLevelBathrooms": null, "rooms": [], "basement": null, "flooring": null, "heating": null, "hasHeating": null, "cooling": null, "hasCooling": null, "appliances": null, "laundryFeatures": null, "fireplaces": null, "fireplaceFeatures": null, "hasFireplace": null, "furnished": false, "commonWalls": null, "buildingArea": null, "livingArea": null, "aboveGradeFinishedArea": null, "belowGradeFinishedArea": null, "virtualTour": "", "parking": null, "parkingFeatures": null, "garageSpaces": null, "coveredSpaces": null, "hasAttachedGarage": false, "hasGarage": null, "openParkingSpaces": null, "hasOpenParking": false, "carportSpaces": null, "hasCarport": false, "otherParking": null, "accessibilityFeatures": null, "levels": null, "stories": null, "entryLevel": null, "entryLocation": null, "hasPrivatePool": null, "hasSpa": null, "spaFeatures": null, "exteriorFeatures": null, "patioAndPorchFeatures": null, "fencing": null, "view": null, "hasView": null, "hasWaterfrontView": null, "waterfrontFeatures": null, "frontageType": null, "frontageLength": null, "topography": null, "woodedArea": null, "vegetation": null, "canRaiseHorses": false, "lotSize": null, "lotSizeDimensions": null, "otherStructures": null, "additionalParcelsDescription": null, "hasAdditionalParcels": false, "parcelNumber": null, "hasAttachedProperty": false, "hasLandLease": false, "landLeaseAmount": null, "zoning": null, "zoningDescription": null, "homeType": "Multi Family", "architecturalStyle": null, "constructionMaterials": null, "foundationDetails": null, "roofType": null, "windowFeatures": null, "propertyCondition": null, "isNewConstruction": false, "yearBuilt": null, "developmentStatus": null, "yearBuiltEffective": null, "onMarketDate": 1592405400000, "builderModel": null, "builderName": "", "hasHomeWarranty": false, "electric": null, "hasElectricOnProperty": null, "gas": null, "sewer": null, "waterSources": null, "utilities": null, "greenBuildingVerificationType": null, "greenEnergyEfficient": null, "greenIndoorAirQuality": null, "greenSustainability": null, "greenWaterConservation": null, "numberOfUnitsInCommunity": null, "numberOfUnitsVacant": null, "storiesTotal": null, "hasPetsAllowed": true, "hasRentControl": false, "buildingFeatures": null, "structureType": null, "buildingName": null, "elementarySchool": "", "elementarySchoolDistrict": "", "middleOrJuniorSchool": "", "middleOrJuniorSchoolDistrict": "", "highSchool": "", "highSchoolDistrict": "", "securityFeatures": null, "communityFeatures": null, "isSeniorCommunity": false, "cityRegion": "New York", "associationFee": null, "hasAssociation": null, "associationAmenities": null, "associationFeeIncludes": null, "associationName": null, "associationPhone": null, "associationFee2": null, "associationName2": null, "associationPhone2": null, "taxAssessedValue": null, "taxAnnualAmount": null, "listingId": null, "buildingAreaSource": null, "otherFacts": [{"name": null, "value": "No Fee"}, {"name": null, "value": "Nyc Evacuation 5"}]}, "description": "*no fee for limited time\nPrime West Village/Chelsea Location! \nEnormous 4 BR apartment with a Large Living Room.\nThis unit is an amazing deal. Many open windows with tons of light, prewar details, hardwood floors, high ceilings, eat in kitchen! \nLocated on 14th street and 7th Avenue most sought after West Village/Chelsea location. Steps to the subway, coffeehouses, restaurants and bars. \nPerfect for shares!", "whatILove": null, "isListedByOwner": false, "contingentListingType": null, "isCommunityPillar": false, "listingCollectionConfig": null, "listingProvider": {"logos": [], "postingWebsiteURL": null, "title": "Listing Provided by", "disclaimerText": null, "enhancedVideoURL": null, "enhancedDescriptionText": null, "showLogos": null, "showNoContactInfoMessage": false, "agentName": "Peter Rohani", "phoneNumber": "(917) 587-2447", "agentLicenseNumber": null, "postingWebsiteLinkText": "AJ Clarke", "postingGroupName": "AJ Clarke", "sourceText": "Source: StreetEasy", "isZRMSourceText": false}, "building": null, "timeOnZillow": "1 hour", "pageViewCount": 14, "favoriteCount": 0, "country": "USA", "hdpUrl": "/homedetails/200-W-14th-St-3E-New-York-NY-10011/2079087470_zpid/", "openHouseSchedule": [], "desktopWebHdpImageLink": "https://maps.googleapis.com/maps/api/streetview?location=200+W+14th+St%2C+New+York%2C+NY+10011&size=550x413&key=AIzaSyARFMLB1na-BBWf7_R3-5YOQQaHqEJf6RQ&source=outdoor&&signature=Zrbr0Z9VqMcx_05-nyIfy_lGyHA=", "brokerageName": "AJ Clarke", "timeZone": "America/New_York", "enhancedBrokerImageUrl": null, "listing_sub_type": {"is_FSBA": false, "is_FSBO": false, "is_pending": false, "is_newHome": false, "is_foreclosure": false, "is_bankOwned": false, "is_forAuction": false, "is_comingSoon": false, "is_openHouse": false}, "livingArea": null, "tourPhotos": [{"url": "https://maps.googleapis.com/maps/api/streetview?location=200+W+14th+St%2C+New+York%2C+NY+10011&size=400x300&key=AIzaSyARFMLB1na-BBWf7_R3-5YOQQaHqEJf6RQ&source=outdoor&&signature=fbA_b-neuGUo8_fK2ybNz7Nib2I="}], "hdpTypeDimension": "ForRent", "providerListingID": "3z9nwkk92wp47", "mlsid": null, "zestimate": null, "propertyTypeDimension": "Multi Family", "hiResImageLink": "https://maps.googleapis.com/maps/api/streetview?location=200+W+14th+St%2C+New+York%2C+NY+10011&size=1025x768&key=AIzaSyARFMLB1na-BBWf7_R3-5YOQQaHqEJf6RQ&source=outdoor&&signature=rjY3hfllsfrQGQTo4xx2rhuYwPo=", "isZillowOwned": false, "tourEligibility": {"isPropertyTourEligible": false}, "isPremierBuilder": false, "moveInReady": false, "newConstructionType": null, "zestimateLowPercent": null, "zestimateHighPercent": null, "rentZestimate": null, "restimateLowPercent": null, "restimateHighPercent": null, "nearbyCities": null, "nearbyNeighborhoods": [{"regionUrl": {"path": "/east-harlem-manhattan-new-york-ny/"}, "name": "East Harlem", "body": {"neighborhood": "East Harlem", "city": "New York", "state": "NY"}}, {"regionUrl": {"path": "/east-village-manhattan-new-york-ny/"}, "name": "East Village", "body": {"neighborhood": "East Village", "city": "New York", "state": "NY"}}, {"regionUrl": {"path": "/gravesend-new-york-ny/"}, "name": "Gravesend", "body": {"neighborhood": "Gravesend", "city": "New York", "state": "NY"}}, {"regionUrl": {"path": "/harlem-manhattan-new-york-ny/"}, "name": "Harlem", "body": {"neighborhood": "Harlem", "city": "New York", "state": "NY"}}, {"regionUrl": {"path": "/lower-east-side-manhattan-new-york-ny/"}, "name": "Lower East Side", "body": {"neighborhood": "Lower East Side", "city": "New York", "state": "NY"}}, {"regionUrl": {"path": "/midwood-new-york-ny/"}, "name": "Midwood", "body": {"neighborhood": "Midwood", "city": "New York", "state": "NY"}}, {"regionUrl": {"path": "/sheepshead-bay-new-york-ny/"}, "name": "Sheepshead Bay", "body": {"neighborhood": "Sheepshead Bay", "city": "New York", "state": "NY"}}, {"regionUrl": {"path": "/upper-east-side-manhattan-new-york-ny/"}, "name": "Upper East Side", "body": {"neighborhood": "Upper East Side", "city": "New York", "state": "NY"}}, {"regionUrl": {"path": "/upper-west-side-new-york-ny/"}, "name": "Upper West Side", "body": {"neighborhood": "Upper West Side", "city": "New York", "state": "NY"}}, {"regionUrl": {"path": "/washington-heights-manhattan-new-york-ny/"}, "name": "Washington Heights", "body": {"neighborhood": "Washington Heights", "city": "New York", "state": "NY"}}], "nearbyZipcodes": [{"regionUrl": {"path": "/manhattan-new-york-ny-10002/"}, "name": "10002", "body": {"zipcode": "10002", "city": "New York", "state": "NY"}}, {"regionUrl": {"path": "/manhattan-new-york-ny-10003/"}, "name": "10003", "body": {"zipcode": "10003", "city": "New York", "state": "NY"}}, {"regionUrl": {"path": "/manhattan-new-york-ny-10009/"}, "name": "10009", "body": {"zipcode": "10009", "city": "New York", "state": "NY"}}, {"regionUrl": {"path": "/manhattan-new-york-ny-10011/"}, "name": "10011", "body": {"zipcode": "10011", "city": "New York", "state": "NY"}}, {"regionUrl": {"path": "/manhattan-new-york-ny-10016/"}, "name": "10016", "body": {"zipcode": "10016", "city": "New York", "state": "NY"}}, {"regionUrl": {"path": "/manhattan-new-york-ny-10019/"}, "name": "10019", "body": {"zipcode": "10019", "city": "New York", "state": "NY"}}, {"regionUrl": {"path": "/manhattan-new-york-ny-10023/"}, "name": "10023", "body": {"zipcode": "10023", "city": "New York", "state": "NY"}}, {"regionUrl": {"path": "/manhattan-new-york-ny-10025/"}, "name": "10025", "body": {"zipcode": "10025", "city": "New York", "state": "NY"}}, {"regionUrl": {"path": "/manhattan-new-york-ny-10029/"}, "name": "10029", "body": {"zipcode": "10029", "city": "New York", "state": "NY"}}, {"regionUrl": {"path": "/manhattan-new-york-ny-10128/"}, "name": "10128", "body": {"zipcode": "10128", "city": "New York", "state": "NY"}}], "nearbyBuildingLinks": [{"buildingUrl": {"path": "/b/1011-carroll-pl-bronx-ny-2Pvs/", "text": "1011 Carroll Pl"}}, {"buildingUrl": {"path": "/b/2825-grand-concourse-bronx-ny-5dvL7F/", "text": "2825 Grand Concourse"}}, {"buildingUrl": {"path": "/b/594-union-ave-bronx-ny-5YHQsG/", "text": "594 Union Ave"}}, {"buildingUrl": {"path": "/b/402-monroe-st-hoboken-nj-5Xxdnd/", "text": "402 Monroe St"}}, {"buildingUrl": {"path": "/b/3030-heath-ave-bronx-ny-2Z2n/", "text": "3030 Heath Ave"}}, {"buildingUrl": {"path": "/b/450-w-58th-st-new-york-ny-3JPj/", "text": "450 W 58th St"}}, {"buildingUrl": {"path": "/b/267-lincoln-pl-brooklyn-ny-3QGk/", "text": "267 Lincoln Pl"}}, {"buildingUrl": {"path": "/b/837-bedford-ave-brooklyn-ny-3bRb/", "text": "837 Bedford Ave"}}, {"buildingUrl": {"path": "/b/41-w-8th-st-new-york-ny-3hzZ/", "text": "41 W 8th St"}}, {"buildingUrl": {"path": "/b/96-n-5th-st-brooklyn-ny-9PNYVn/", "text": "96 N 5th St"}}], "listingSource": null, "listingAccount": null, "ownerAccount": null, "lfaViewPropertyPageUrl": null, "listingOwnerConfigIDs": null, "postingPresentationTypes": null, "abbreviatedAddress": "200 W 14th St #3E", "parentRegion": {"name": "Greenwich Village"}, "boroughId": 12530, "neighborhoodSearchUrl": {"path": "/greenwich-village-manhattan-new-york-ny/"}, "stateSearchUrl": {"path": "/ny/"}, "citySearchUrl": {"text": "Homes in New York", "path": "/new-york-ny/"}, "zipcodeSearchUrl": {"path": "/manhattan-new-york-ny-10011/"}, "boroughSearchUrl": {"text": "Homes in Manhattan", "path": "/manhattan-new-york-ny/"}, "communityUrl": null, "taxHistory": [], "priceHistory": [{"time": 1592405400000, "price": 6250, "priceChangeRate": 0, "event": "Listed for rent", "source": "AJ Clarke", "buyerAgent": null, "sellerAgent": null, "showCountyLink": false, "postingIsRental": true}], "schools": [{"distance": 0.4, "name": "Ps 11 William T Harris", "rating": 7, "level": "Primary", "studentsPerTeacher": 15, "assigned": null, "grades": "PK-5", "link": "https://www.greatschools.org/school?id=02058&state=NY", "type": "Public", "size": 920, "totalCount": 1, "isAssigned": true}, {"distance": 4.4, "name": "Life Sciences Secondary School", "rating": 2, "level": "Middle", "studentsPerTeacher": 14, "assigned": null, "grades": "6-12", "link": "https://www.greatschools.org/school?id=06273&state=NY", "type": "Public", "size": 573, "totalCount": 6, "isAssigned": true}, {"distance": 0.3, "name": "Nyc Lab High School For Collaborative Studies", "rating": 8, "level": "High", "studentsPerTeacher": 14, "assigned": null, "grades": "9-12", "link": "https://www.greatschools.org/school?id=02777&state=NY", "type": "Public", "size": 496, "totalCount": 3, "isAssigned": true}], "schoolSearchUrl": {"path": "/new-york-ny/schools/"}, "festimate": null, "homeValues": {"region": {"zhvi": {"yoy": -1.016681158166757, "value": 652307}, "buyerSellerIndex": {"value": 3}, "shortName": "New York", "link": "/new-york-ny/home-values/"}, "parentRegion": {"zhvi": {"yoy": 1.0331833193301778}}}, "nearbyHomes": [{"zpid": 2111597101, "miniCardPhotos": [{"url": "https://maps.googleapis.com/maps/api/streetview?location=205+W+14th+St%2C+New+York%2C+NY+10011&size=316x234&key=AIzaSyARFMLB1na-BBWf7_R3-5YOQQaHqEJf6RQ&source=outdoor&&signature=QelE6Yl1pu0XG4Hj4vj1uvUFBbU="}], "price": 0, "currency": "USD", "bedrooms": null, "bathrooms": null, "livingArea": null, "lotSize": null, "address": {"streetAddress": "205 W 14th St FL 2", "city": "New York", "state": "NY", "zipcode": "10011"}, "latitude": 40.738627, "longitude": -73.999814, "homeStatus": "OTHER", "homeType": "CONDO", "hdpUrl": "/homedetails/205-W-14th-St-FL-2-New-York-NY-10011/2111597101_zpid/", "listing_sub_type": {"is_newHome": false, "is_forAuction": false, "is_bankOwned": false, "is_foreclosure": false, "is_FSBO": false, "is_comingSoon": false, "is_FSBA": false}, "isUndisclosedAddress": false, "isPremierBuilder": false, "state": "NY", "isZillowOwned": false, "moveInReady": false, "newConstructionType": null}, {"zpid": 2104903983, "miniCardPhotos": [{"url": "https://maps.googleapis.com/maps/api/streetview?location=66+7th+Ave%2C+New+York%2C+NY+10011&size=316x234&key=AIzaSyARFMLB1na-BBWf7_R3-5YOQQaHqEJf6RQ&source=outdoor&&signature=bId0B2cZ9VLQkHiikqFgUzZ6Vm0="}], "price": 604344, "currency": "USD", "bedrooms": 0, "bathrooms": 1, "livingArea": null, "lotSize": null, "address": {"streetAddress": "66 7th Ave APT 5C", "city": "New York", "state": "NY", "zipcode": "10011"}, "latitude": 40.7387, "longitude": -73.999702, "homeStatus": "OTHER", "homeType": "MULTI_FAMILY", "hdpUrl": "/homedetails/66-7th-Ave-APT-5C-New-York-NY-10011/2104903983_zpid/", "listing_sub_type": {"is_newHome": false, "is_forAuction": false, "is_bankOwned": false, "is_foreclosure": false, "is_FSBO": false, "is_comingSoon": false, "is_FSBA": false}, "isUndisclosedAddress": false, "isPremierBuilder": false, "state": "NY", "isZillowOwned": false, "moveInReady": false, "newConstructionType": null}, {"zpid": 2112983545, "miniCardPhotos": [{"url": "https://photos.zillowstatic.com/p_c/IS9hny2w9sx0gd0000000000.jpg"}], "price": 776170, "currency": "USD", "bedrooms": 1, "bathrooms": 1, "livingArea": null, "lotSize": null, "address": {"streetAddress": "66 7th Ave APT 4A", "city": "New York", "state": "NY", "zipcode": "10011"}, "latitude": 40.7387, "longitude": -73.9997, "homeStatus": "OTHER", "homeType": "MULTI_FAMILY", "hdpUrl": "/homedetails/66-7th-Ave-APT-4A-New-York-NY-10011/2112983545_zpid/", "listing_sub_type": {"is_newHome": false, "is_forAuction": false, "is_bankOwned": false, "is_foreclosure": false, "is_FSBO": false, "is_comingSoon": false, "is_FSBA": false}, "isUndisclosedAddress": false, "isPremierBuilder": false, "state": "NY", "isZillowOwned": false, "moveInReady": false, "newConstructionType": null}, {"zpid": 2101174982, "miniCardPhotos": [{"url": "https://photos.zillowstatic.com/p_c/ISxzdyelgdzzlz0000000000.jpg"}], "price": 769821, "currency": "USD", "bedrooms": 1, "bathrooms": 1, "livingArea": null, "lotSize": null, "address": {"streetAddress": "66 7th Ave APT 5B", "city": "New York", "state": "NY", "zipcode": "10011"}, "latitude": 40.7387, "longitude": -73.9997, "homeStatus": "OTHER", "homeType": "MULTI_FAMILY", "hdpUrl": "/homedetails/66-7th-Ave-APT-5B-New-York-NY-10011/2101174982_zpid/", "listing_sub_type": {"is_newHome": false, "is_forAuction": false, "is_bankOwned": false, "is_foreclosure": false, "is_FSBO": false, "is_comingSoon": false, "is_FSBA": false}, "isUndisclosedAddress": false, "isPremierBuilder": false, "state": "NY", "isZillowOwned": false, "moveInReady": false, "newConstructionType": null}, {"zpid": 2102123597, "miniCardPhotos": [{"url": "https://photos.zillowstatic.com/p_c/ISd8baqromko621000000000.jpg"}], "price": 776170, "currency": "USD", "bedrooms": 1, "bathrooms": 1, "livingArea": null, "lotSize": null, "address": {"streetAddress": "66 7th Ave APT 3A", "city": "New York", "state": "NY", "zipcode": "10011"}, "latitude": 40.7387, "longitude": -73.9997, "homeStatus": "OTHER", "homeType": "MULTI_FAMILY", "hdpUrl": "/homedetails/66-7th-Ave-APT-3A-New-York-NY-10011/2102123597_zpid/", "listing_sub_type": {"is_newHome": false, "is_forAuction": false, "is_bankOwned": false, "is_foreclosure": false, "is_FSBO": false, "is_comingSoon": false, "is_FSBA": false}, "isUndisclosedAddress": false, "isPremierBuilder": false, "state": "NY", "isZillowOwned": false, "moveInReady": false, "newConstructionType": null}, {"zpid": 2111135356, "miniCardPhotos": [{"url": "https://photos.zillowstatic.com/p_c/IS9hfs4bv56iyi0000000000.jpg"}], "price": 760061, "currency": "USD", "bedrooms": 1, "bathrooms": 1, "livingArea": null, "lotSize": null, "address": {"streetAddress": "200 W 14th St FRNT 3", "city": "New York", "state": "NY", "zipcode": "10011"}, "latitude": 40.738578, "longitude": -73.999877, "homeStatus": "OTHER", "homeType": "MULTI_FAMILY", "hdpUrl": "/homedetails/200-W-14th-St-FRNT-3-New-York-NY-10011/2111135356_zpid/", "listing_sub_type": {"is_newHome": false, "is_forAuction": false, "is_bankOwned": false, "is_foreclosure": false, "is_FSBO": false, "is_comingSoon": false, "is_FSBA": false}, "isUndisclosedAddress": false, "isPremierBuilder": false, "state": "NY", "isZillowOwned": false, "moveInReady": false, "newConstructionType": null}, {"zpid": 2102382321, "miniCardPhotos": [{"url": "https://photos.zillowstatic.com/p_c/ISp9cdijch0c161000000000.jpg"}], "price": 754352, "currency": "USD", "bedrooms": 1, "bathrooms": 1, "livingArea": null, "lotSize": null, "address": {"streetAddress": "200 W 14th St APT 5S", "city": "New York", "state": "NY", "zipcode": "10011"}, "latitude": 40.73858, "longitude": -73.99988, "homeStatus": "OTHER", "homeType": "MULTI_FAMILY", "hdpUrl": "/homedetails/200-W-14th-St-APT-5S-New-York-NY-10011/2102382321_zpid/", "listing_sub_type": {"is_newHome": false, "is_forAuction": false, "is_bankOwned": false, "is_foreclosure": false, "is_FSBO": false, "is_comingSoon": false, "is_FSBA": false}, "isUndisclosedAddress": false, "isPremierBuilder": false, "state": "NY", "isZillowOwned": false, "moveInReady": false, "newConstructionType": null}, {"zpid": 2081945814, "miniCardPhotos": [{"url": "https://photos.zillowstatic.com/p_c/ISn6ng8bx0djba1000000000.jpg"}], "price": 1111564, "currency": "USD", "bedrooms": 1, "bathrooms": 1, "livingArea": null, "lotSize": null, "address": {"streetAddress": "56 7th Ave APT 11F", "city": "New York", "state": "NY", "zipcode": "10011"}, "latitude": 40.738385, "longitude": -73.999807, "homeStatus": "OTHER", "homeType": "MULTI_FAMILY", "hdpUrl": "/homedetails/56-7th-Ave-APT-11F-New-York-NY-10011/2081945814_zpid/", "listing_sub_type": {"is_newHome": false, "is_forAuction": false, "is_bankOwned": false, "is_foreclosure": false, "is_FSBO": false, "is_comingSoon": false, "is_FSBA": false}, "isUndisclosedAddress": false, "isPremierBuilder": false, "state": "NY", "isZillowOwned": false, "moveInReady": false, "newConstructionType": null}], "homeRecommendations": {"blendedRecs": [], "displayShort": ""}, "comps": [{"zpid": 2110027027, "miniCardPhotos": [{"url": "https://photos.zillowstatic.com/p_c/ISbxjiwe3omqsq0000000000.jpg"}], "price": 6295, "currency": "USD", "bedrooms": 3, "bathrooms": 1, "livingArea": 800, "lotSize": 800, "address": {"streetAddress": "234 W 14th St #B", "city": "New York", "state": "NY", "zipcode": "10011"}, "latitude": 40.73906, "longitude": -74.00114, "homeStatus": "FOR_RENT", "homeType": "MULTI_FAMILY", "hdpUrl": "/homedetails/234-W-14th-St-B-New-York-NY-10011/2110027027_zpid/", "listing_sub_type": {"is_newHome": false, "is_forAuction": false, "is_bankOwned": false, "is_foreclosure": false, "is_FSBO": false, "is_comingSoon": false, "is_FSBA": false}, "isUndisclosedAddress": false, "isPremierBuilder": false, "state": "NY", "isZillowOwned": false, "moveInReady": false, "newConstructionType": null}, {"zpid": 2127598782, "miniCardPhotos": [{"url": "https://photos.zillowstatic.com/p_c/ISj3a1cywfamcp0000000000.jpg"}], "price": 6295, "currency": "USD", "bedrooms": 3, "bathrooms": 1, "livingArea": null, "lotSize": null, "address": {"streetAddress": "232 W 14th St APT 4A", "city": "New York", "state": "NY", "zipcode": "10011"}, "latitude": 40.738997, "longitude": -74.001475, "homeStatus": "FOR_RENT", "homeType": "MULTI_FAMILY", "hdpUrl": "/homedetails/232-W-14th-St-APT-4A-New-York-NY-10011/2127598782_zpid/", "listing_sub_type": {"is_newHome": false, "is_forAuction": false, "is_bankOwned": false, "is_foreclosure": false, "is_FSBO": false, "is_comingSoon": false, "is_FSBA": false}, "isUndisclosedAddress": false, "isPremierBuilder": false, "state": "NY", "isZillowOwned": false, "moveInReady": false, "newConstructionType": null}, {"zpid": 2121591376, "miniCardPhotos": [{"url": "https://photos.zillowstatic.com/p_c/ISrpoxy4ldk56p0000000000.jpg"}], "price": 6095, "currency": "USD", "bedrooms": 3, "bathrooms": 1, "livingArea": null, "lotSize": null, "address": {"streetAddress": "232 W 14th St APT 3B", "city": "New York", "state": "NY", "zipcode": "10011"}, "latitude": 40.738997, "longitude": -74.001475, "homeStatus": "FOR_RENT", "homeType": "MULTI_FAMILY", "hdpUrl": "/homedetails/232-W-14th-St-APT-3B-New-York-NY-10011/2121591376_zpid/", "listing_sub_type": {"is_newHome": false, "is_forAuction": false, "is_bankOwned": false, "is_foreclosure": false, "is_FSBO": false, "is_comingSoon": false, "is_FSBA": false}, "isUndisclosedAddress": false, "isPremierBuilder": false, "state": "NY", "isZillowOwned": false, "moveInReady": false, "newConstructionType": null}, {"zpid": 2079289088, "miniCardPhotos": [{"url": "https://photos.zillowstatic.com/p_c/ISfojfg3vwwuxm0000000000.jpg"}], "price": 5995, "currency": "USD", "bedrooms": 1, "bathrooms": 1, "livingArea": null, "lotSize": null, "address": {"streetAddress": "128 W 13th St", "city": "New York", "state": "NY", "zipcode": "10011"}, "latitude": 40.737035, "longitude": -73.998803, "homeStatus": "FOR_RENT", "homeType": "MULTI_FAMILY", "hdpUrl": "/homedetails/128-W-13th-St-New-York-NY-10011/2079289088_zpid/", "listing_sub_type": {"is_newHome": false, "is_forAuction": false, "is_bankOwned": false, "is_foreclosure": false, "is_FSBO": false, "is_comingSoon": false, "is_FSBA": false}, "isUndisclosedAddress": false, "isPremierBuilder": false, "state": "NY", "isZillowOwned": false, "moveInReady": false, "newConstructionType": null}, {"zpid": 2114125820, "miniCardPhotos": [{"url": "https://photos.zillowstatic.com/p_c/ISrh2ndpiphbtc1000000000.jpg"}], "price": 6000, "currency": "USD", "bedrooms": 3, "bathrooms": 1, "livingArea": 1400, "lotSize": null, "address": {"streetAddress": "250 W 14th St APT 4", "city": "New York", "state": "NY", "zipcode": "10011"}, "latitude": 40.73931, "longitude": -74.00217, "homeStatus": "FOR_RENT", "homeType": "MULTI_FAMILY", "hdpUrl": "/homedetails/250-W-14th-St-APT-4-New-York-NY-10011/2114125820_zpid/", "listing_sub_type": {"is_newHome": false, "is_forAuction": false, "is_bankOwned": false, "is_foreclosure": false, "is_FSBO": false, "is_comingSoon": false, "is_FSBA": false}, "isUndisclosedAddress": false, "isPremierBuilder": false, "state": "NY", "isZillowOwned": false, "moveInReady": false, "newConstructionType": null}, {"zpid": 2110261134, "miniCardPhotos": [{"url": "https://photos.zillowstatic.com/p_c/IS3zzdafu5fhs21000000000.jpg"}], "price": 5958, "currency": "USD", "bedrooms": 3, "bathrooms": 2, "livingArea": 1238, "lotSize": null, "address": {"streetAddress": "205 W 15th St APT 3G", "city": "New York", "state": "NY", "zipcode": "10011"}, "latitude": 40.739484, "longitude": -73.99938, "homeStatus": "FOR_RENT", "homeType": "MULTI_FAMILY", "hdpUrl": "/homedetails/205-W-15th-St-APT-3G-New-York-NY-10011/2110261134_zpid/", "listing_sub_type": {"is_newHome": false, "is_forAuction": false, "is_bankOwned": false, "is_foreclosure": false, "is_FSBO": false, "is_comingSoon": false, "is_FSBA": false}, "isUndisclosedAddress": false, "isPremierBuilder": false, "state": "NY", "isZillowOwned": false, "moveInReady": false, "newConstructionType": null}, {"zpid": 2119921351, "miniCardPhotos": [{"url": "https://photos.zillowstatic.com/p_c/ISfcq0k92iok1b1000000000.jpg"}], "price": 5895, "currency": "USD", "bedrooms": 3, "bathrooms": 1, "livingArea": null, "lotSize": null, "address": {"streetAddress": "232 W 14th St APT 2B", "city": "New York", "state": "NY", "zipcode": "10011"}, "latitude": 40.738997, "longitude": -74.001475, "homeStatus": "FOR_RENT", "homeType": "MULTI_FAMILY", "hdpUrl": "/homedetails/232-W-14th-St-APT-2B-New-York-NY-10011/2119921351_zpid/", "listing_sub_type": {"is_newHome": false, "is_forAuction": false, "is_bankOwned": false, "is_foreclosure": false, "is_FSBO": false, "is_comingSoon": false, "is_FSBA": false}, "isUndisclosedAddress": false, "isPremierBuilder": false, "state": "NY", "isZillowOwned": false, "moveInReady": false, "newConstructionType": null}, {"zpid": 2128019936, "miniCardPhotos": [{"url": "https://photos.zillowstatic.com/p_c/ISf4ota99j0boe0000000000.jpg"}], "price": 5679, "currency": "USD", "bedrooms": 3, "bathrooms": 1, "livingArea": 950, "lotSize": null, "address": {"streetAddress": "2 Bank St APT 8", "city": "New York", "state": "NY", "zipcode": "10014"}, "latitude": 40.736994, "longitude": -74.001612, "homeStatus": "FOR_RENT", "homeType": "MULTI_FAMILY", "hdpUrl": "/homedetails/2-Bank-St-APT-8-New-York-NY-10014/2128019936_zpid/", "listing_sub_type": {"is_newHome": false, "is_forAuction": false, "is_bankOwned": false, "is_foreclosure": false, "is_FSBO": false, "is_comingSoon": false, "is_FSBA": false}, "isUndisclosedAddress": false, "isPremierBuilder": false, "state": "NY", "isZillowOwned": false, "moveInReady": false, "newConstructionType": null}], "propertyUpdatePageLink": null, "moveHomeMapLocationLink": null, "propertyEventLogLink": null, "editPropertyHistorylink": null, "lastSoldPrice": null, "taxAssessedValue": null, "taxAssessedYear": null, "listingFeedID": 13668, "isPreforeclosureAuction": false, "postingProductType": "Standard", "marketingName": "", "hideZestimate": false, "comingSoonOnMarketDate": null, "priceChange": null, "datePriceChanged": null, "dateSold": null, "lotSize": null, "hoaFee": null, "mortgageRates": {"thirtyYearFixedRate": 3.375}, "propertyTaxRate": 0.88, "unassistedShowing": null, "responsivePhotos": [{"caption": "", "subjectType": "UNKNOWN", "url": "https://maps.googleapis.com/maps/api/streetview?location=200+W+14th+St%2C+New+York%2C+NY+10011&size=400x300&key=AIzaSyARFMLB1na-BBWf7_R3-5YOQQaHqEJf6RQ&source=outdoor&&signature=fbA_b-neuGUo8_fK2ybNz7Nib2I=", "mixedSources": {"jpeg": [{"url": "https://maps.googleapis.com/maps/api/streetview?location=200+W+14th+St%2C+New+York%2C+NY+10011&size=192x144&key=AIzaSyARFMLB1na-BBWf7_R3-5YOQQaHqEJf6RQ&source=outdoor&&signature=0XTgsUBMiF08PTnJkq1cw78uS7g=", "width": 192}, {"url": "https://maps.googleapis.com/maps/api/streetview?location=200+W+14th+St%2C+New+York%2C+NY+10011&size=384x288&key=AIzaSyARFMLB1na-BBWf7_R3-5YOQQaHqEJf6RQ&source=outdoor&&signature=O0BoGfnePTzwqUXi-jmoXwvt4ZQ=", "width": 384}, {"url": "https://maps.googleapis.com/maps/api/streetview?location=200+W+14th+St%2C+New+York%2C+NY+10011&size=576x432&key=AIzaSyARFMLB1na-BBWf7_R3-5YOQQaHqEJf6RQ&source=outdoor&&signature=QCqhlf-Lgz9EUf0gALBWdmmy2yQ=", "width": 576}, {"url": "https://maps.googleapis.com/maps/api/streetview?location=200+W+14th+St%2C+New+York%2C+NY+10011&size=768x576&key=AIzaSyARFMLB1na-BBWf7_R3-5YOQQaHqEJf6RQ&source=outdoor&&signature=gOy37nHTa3fJB8mDCmMMPIZs1H0=", "width": 768}, {"url": "https://maps.googleapis.com/maps/api/streetview?location=200+W+14th+St%2C+New+York%2C+NY+10011&size=960x720&key=AIzaSyARFMLB1na-BBWf7_R3-5YOQQaHqEJf6RQ&source=outdoor&&signature=BK9TkITwTAfSsJNVS3khvkijrnY=", "width": 960}, {"url": "https://maps.googleapis.com/maps/api/streetview?location=200+W+14th+St%2C+New+York%2C+NY+10011&size=1152x864&key=AIzaSyARFMLB1na-BBWf7_R3-5YOQQaHqEJf6RQ&source=outdoor&&signature=Unf63GDapxijEUPN4XIubZ8ODhU=", "width": 1152}, {"url": "https://maps.googleapis.com/maps/api/streetview?location=200+W+14th+St%2C+New+York%2C+NY+10011&size=1344x1008&key=AIzaSyARFMLB1na-BBWf7_R3-5YOQQaHqEJf6RQ&source=outdoor&&signature=fUVShGnyLE7GR3XVuFyIztTWxG8=", "width": 1344}, {"url": "https://maps.googleapis.com/maps/api/streetview?location=200+W+14th+St%2C+New+York%2C+NY+10011&size=1536x1152&key=AIzaSyARFMLB1na-BBWf7_R3-5YOQQaHqEJf6RQ&source=outdoor&&signature=KkWLcrRFuTSmYS-sbmVeaFT0PMg=", "width": 1536}], "webp": [{"url": "https://maps.googleapis.com/maps/api/streetview?location=200+W+14th+St%2C+New+York%2C+NY+10011&size=192x144&key=AIzaSyARFMLB1na-BBWf7_R3-5YOQQaHqEJf6RQ&source=outdoor&&signature=0XTgsUBMiF08PTnJkq1cw78uS7g=", "width": 192}, {"url": "https://maps.googleapis.com/maps/api/streetview?location=200+W+14th+St%2C+New+York%2C+NY+10011&size=384x288&key=AIzaSyARFMLB1na-BBWf7_R3-5YOQQaHqEJf6RQ&source=outdoor&&signature=O0BoGfnePTzwqUXi-jmoXwvt4ZQ=", "width": 384}, {"url": "https://maps.googleapis.com/maps/api/streetview?location=200+W+14th+St%2C+New+York%2C+NY+10011&size=576x432&key=AIzaSyARFMLB1na-BBWf7_R3-5YOQQaHqEJf6RQ&source=outdoor&&signature=QCqhlf-Lgz9EUf0gALBWdmmy2yQ=", "width": 576}, {"url": "https://maps.googleapis.com/maps/api/streetview?location=200+W+14th+St%2C+New+York%2C+NY+10011&size=768x576&key=AIzaSyARFMLB1na-BBWf7_R3-5YOQQaHqEJf6RQ&source=outdoor&&signature=gOy37nHTa3fJB8mDCmMMPIZs1H0=", "width": 768}, {"url": "https://maps.googleapis.com/maps/api/streetview?location=200+W+14th+St%2C+New+York%2C+NY+10011&size=960x720&key=AIzaSyARFMLB1na-BBWf7_R3-5YOQQaHqEJf6RQ&source=outdoor&&signature=BK9TkITwTAfSsJNVS3khvkijrnY=", "width": 960}, {"url": "https://maps.googleapis.com/maps/api/streetview?location=200+W+14th+St%2C+New+York%2C+NY+10011&size=1152x864&key=AIzaSyARFMLB1na-BBWf7_R3-5YOQQaHqEJf6RQ&source=outdoor&&signature=Unf63GDapxijEUPN4XIubZ8ODhU=", "width": 1152}, {"url": "https://maps.googleapis.com/maps/api/streetview?location=200+W+14th+St%2C+New+York%2C+NY+10011&size=1344x1008&key=AIzaSyARFMLB1na-BBWf7_R3-5YOQQaHqEJf6RQ&source=outdoor&&signature=fUVShGnyLE7GR3XVuFyIztTWxG8=", "width": 1344}, {"url": "https://maps.googleapis.com/maps/api/streetview?location=200+W+14th+St%2C+New+York%2C+NY+10011&size=1536x1152&key=AIzaSyARFMLB1na-BBWf7_R3-5YOQQaHqEJf6RQ&source=outdoor&&signature=KkWLcrRFuTSmYS-sbmVeaFT0PMg=", "width": 1536}]}}], "datePosted": 1592380200000, "zoMarketName": null, "hasBadGeocode": false, "isCamo": false, "streetViewMetadataUrlMediaWallLatLong": "https://maps.googleapis.com/maps/api/streetview/metadata?location=40.738572,-73.999721&key=AIzaSyARFMLB1na-BBWf7_R3-5YOQQaHqEJf6RQ&source=outdoor&signature=VyCxRbTXDkbAirA6ZADkAX-9jjI=", "streetViewMetadataUrlMediaWallAddress": "https://maps.googleapis.com/maps/api/streetview/metadata?location=200%20W%2014th%20St%2C%20New%20York%2C%20NY%2010011&key=AIzaSyARFMLB1na-BBWf7_R3-5YOQQaHqEJf6RQ&source=outdoor&signature=RoY0nZwaLjcO2vPUFtvnZrjWQGU=", "streetViewServiceUrl": "https://proxy.zillowapi.com/street-view-url?zpid=2079087470&address=200%20W%2014th%20St%2C%20New%20York%2C%20NY%2010011&width=512&height=234&key=AIzaSyARFMLB1na-BBWf7_R3-5YOQQaHqEJf6RQ&maxdistance=5280&lat=40.738572&lon=-73.999721&signature=vhlw36gnw4RNMDHRiVPlQiZTIBc=", "streetView": {"addressSources": [{"width": 192, "url": "https://maps.googleapis.com/maps/api/streetview?location=200%20W%2014th%20St%2C%20New%20York%2C%20NY%2010011&size=192x72&key=AIzaSyARFMLB1na-BBWf7_R3-5YOQQaHqEJf6RQ&source=outdoor&signature=rr7G6MeaDkk7KuFh3Kd3En9xffs="}, {"width": 384, "url": "https://maps.googleapis.com/maps/api/streetview?location=200%20W%2014th%20St%2C%20New%20York%2C%20NY%2010011&size=384x144&key=AIzaSyARFMLB1na-BBWf7_R3-5YOQQaHqEJf6RQ&source=outdoor&signature=IkDNKHT_xeJQc6Z9DtWtulavsOc="}, {"width": 768, "url": "https://maps.googleapis.com/maps/api/streetview?location=200%20W%2014th%20St%2C%20New%20York%2C%20NY%2010011&size=768x288&key=AIzaSyARFMLB1na-BBWf7_R3-5YOQQaHqEJf6RQ&source=outdoor&signature=IItMJ6IVHzmDI5UbbwbDbdsA7KE="}], "latLongSources": [{"width": 192, "url": "https://maps.googleapis.com/maps/api/streetview?location=40.738572,-73.999721&size=192x72&key=AIzaSyARFMLB1na-BBWf7_R3-5YOQQaHqEJf6RQ&source=outdoor&signature=zPHv4G4KyrBaBL0VProJBdpIDII="}, {"width": 384, "url": "https://maps.googleapis.com/maps/api/streetview?location=40.738572,-73.999721&size=384x144&key=AIzaSyARFMLB1na-BBWf7_R3-5YOQQaHqEJf6RQ&source=outdoor&signature=HfRjG9_XHxmo-ysp6JL6cHqi_Qc="}, {"width": 768, "url": "https://maps.googleapis.com/maps/api/streetview?location=40.738572,-73.999721&size=768x288&key=AIzaSyARFMLB1na-BBWf7_R3-5YOQQaHqEJf6RQ&source=outdoor&signature=ypaG5NZy84xY_5pTVuMgCfWHusI="}]}, "staticMap": {"sources": [{"width": 192, "url": "https://maps.googleapis.com/maps/api/staticmap?center=40.738572,-73.999721&zoom=15&size=192x144&maptype=roadmap&key=AIzaSyARFMLB1na-BBWf7_R3-5YOQQaHqEJf6RQ&signature=d9GJNwXWXNxsml3FcWtn4I5rYd0="}, {"width": 384, "url": "https://maps.googleapis.com/maps/api/staticmap?center=40.738572,-73.999721&zoom=16&size=384x288&maptype=roadmap&key=AIzaSyARFMLB1na-BBWf7_R3-5YOQQaHqEJf6RQ&signature=tVZDzY3b25ORTDglN56aH6L35FI="}, {"width": 768, "url": "https://maps.googleapis.com/maps/api/staticmap?center=40.738572,-73.999721&zoom=17&size=768x576&maptype=roadmap&key=AIzaSyARFMLB1na-BBWf7_R3-5YOQQaHqEJf6RQ&signature=yy5KLcZIpy0-q-CfvPmeuixvuh8="}]}, "hasPublicVideo": false, "primaryPublicVideo": null, "hasVRModel": null, "vrModel": {"vrModelGuid": null, "revisionId": null, "cdnHost": null}, "tourViewCount": 0, "listingSubType": {"isFSBA": false, "isPending": false, "isNewHome": false, "isForeclosure": false, "isBankOwned": false, "isForAuction": false, "isOpenHouse": false, "isComingSoon": false}, "postingContact": {"name": "Peter Rohani", "photo": {"url": "https://photos.zillowstatic.com/h_i/ISbtwhhvfn4cf01000000000.jpg"}}, "zoMarketBasedABTests": {"StartAnOffer": null}, "postingUrl": "", "floorMaps": [], "streetViewTileImageUrlMediumLatLong": "https://maps.googleapis.com/maps/api/streetview?location=40.738572,-73.999721&size=400x250&key=AIzaSyARFMLB1na-BBWf7_R3-5YOQQaHqEJf6RQ&source=outdoor&signature=FMin6p52FWEY7uuFnzOcrBCqBnM=", "streetViewTileImageUrlMediumAddress": "https://maps.googleapis.com/maps/api/streetview?location=200%20W%2014th%20St%2C%20New%20York%2C%20NY%2010011&size=400x250&key=AIzaSyARFMLB1na-BBWf7_R3-5YOQQaHqEJf6RQ&source=outdoor&signature=cVtIX6NnreBm9X5u1VVMGljrR-4=", "streetViewMetadataUrlMapLightboxAddress": "https://maps.googleapis.com/maps/api/streetview/metadata?location=200%20W%2014th%20St%2C%20New%20York%2C%20NY%2010011&key=AIzaSyBV4lXhV-qzQOegyA3m0_AvGy9F21HIyOQ&source=outdoor&signature=GxrJl7RwKUyPZNSLo_B1uaoX2xk=", "thumb": [{"url": "https://maps.googleapis.com/maps/api/streetview?location=200+W+14th+St%2C+New+York%2C+NY+10011&size=46x46&key=AIzaSyARFMLB1na-BBWf7_R3-5YOQQaHqEJf6RQ&source=outdoor&&signature=5PdJS5ijuo0K-VDt4j9tpUO6zf8="}], "photoCount": 1, "hugePhotos": [{"url": "https://maps.googleapis.com/maps/api/streetview?location=200+W+14th+St%2C+New+York%2C+NY+10011&size=1025x768&key=AIzaSyARFMLB1na-BBWf7_R3-5YOQQaHqEJf6RQ&source=outdoor&&signature=rjY3hfllsfrQGQTo4xx2rhuYwPo=", "width": 1025, "height": 768, "caption": ""}], "responsivePhotosOriginalRatio": [{"caption": "", "mixedSources": {"jpeg": [{"url": "https://maps.googleapis.com/maps/api/streetview?location=200+W+14th+St%2C+New+York%2C+NY+10011&size=800x600&key=AIzaSyARFMLB1na-BBWf7_R3-5YOQQaHqEJf6RQ&source=outdoor&&signature=78CImYlJa-65SWrH2qi66zY1YQ8=", "width": 800}, {"url": "https://maps.googleapis.com/maps/api/streetview?location=200+W+14th+St%2C+New+York%2C+NY+10011&size=1024x768&key=AIzaSyARFMLB1na-BBWf7_R3-5YOQQaHqEJf6RQ&source=outdoor&&signature=28NmewkzIc6P-koiWugYP8kpWBg=", "width": 1024}, {"url": "https://maps.googleapis.com/maps/api/streetview?location=200+W+14th+St%2C+New+York%2C+NY+10011&size=1344x1008&key=AIzaSyARFMLB1na-BBWf7_R3-5YOQQaHqEJf6RQ&source=outdoor&&signature=fUVShGnyLE7GR3XVuFyIztTWxG8=", "width": 1344}, {"url": "https://maps.googleapis.com/maps/api/streetview?location=200+W+14th+St%2C+New+York%2C+NY+10011&size=1536x1152&key=AIzaSyARFMLB1na-BBWf7_R3-5YOQQaHqEJf6RQ&source=outdoor&&signature=KkWLcrRFuTSmYS-sbmVeaFT0PMg=", "width": 1536}], "webp": [{"url": "https://maps.googleapis.com/maps/api/streetview?location=200+W+14th+St%2C+New+York%2C+NY+10011&size=800x600&key=AIzaSyARFMLB1na-BBWf7_R3-5YOQQaHqEJf6RQ&source=outdoor&&signature=78CImYlJa-65SWrH2qi66zY1YQ8=", "width": 800}, {"url": "https://maps.googleapis.com/maps/api/streetview?location=200+W+14th+St%2C+New+York%2C+NY+10011&size=1024x768&key=AIzaSyARFMLB1na-BBWf7_R3-5YOQQaHqEJf6RQ&source=outdoor&&signature=28NmewkzIc6P-koiWugYP8kpWBg=", "width": 1024}, {"url": "https://maps.googleapis.com/maps/api/streetview?location=200+W+14th+St%2C+New+York%2C+NY+10011&size=1344x1008&key=AIzaSyARFMLB1na-BBWf7_R3-5YOQQaHqEJf6RQ&source=outdoor&&signature=fUVShGnyLE7GR3XVuFyIztTWxG8=", "width": 1344}, {"url": "https://maps.googleapis.com/maps/api/streetview?location=200+W+14th+St%2C+New+York%2C+NY+10011&size=1536x1152&key=AIzaSyARFMLB1na-BBWf7_R3-5YOQQaHqEJf6RQ&source=outdoor&&signature=KkWLcrRFuTSmYS-sbmVeaFT0PMg=", "width": 1536}]}}], "isRecentStatusChange": false, "isNonOwnerOccupied": false, "buildingId": "9741", "county": "New York County", "daysOnZillow": 1, "foreclosureTypes": {"isBankOwned": false, "wasNonRetailAuction": false, "wasDefault": false}, "rentalApplicationsAcceptedType": "NOT_ELIGIBLE", "listingTypeDimension": "For Rent", "featuredListingTypeDimension": "organic", "brokerIdDimension": "13501", "keystoneHomeStatus": "ForRent", "pageUrlFragment": "ForRent", "isRentalsLeadCapMet": false, "isPaidMultiFamilyBrokerId": false, "regionString": "New York NY", "isCurrentSignedInUserVerifiedOwner": false, "topNavJson": {"topnav": {"json": {"logo": {"text": "Zillow Real Estate", "href": "/"}, "main": {"sections": [{"link": {"text": "Buy", "href": "/homes/", "classString": "noroute"}, "subsections": [{"title": "New York homes for sale", "links": [[{"text": "Homes for sale", "href": "/new-york-ny/", "classString": "noroute"}, {"text": "Foreclosures", "href": "/new-york-ny/foreclosures/", "classString": "noroute"}, {"text": "For sale by owner", "href": "/new-york-ny/fsbo/", "classString": "noroute"}, {"text": "Open houses", "href": "/new-york-ny/open-house/", "classString": "noroute"}], [{"text": "New construction", "href": "/new-york-ny/new-homes/", "classString": "noroute"}, {"text": "Coming soon", "href": "/new-york-ny/coming-soon/", "classString": "noroute"}, {"text": "Recent home sales", "href": "/new-york-ny/sold/", "classString": "noroute"}, {"text": "All homes", "href": "/browse/homes/"}]]}, {"title": "Resources", "links": [[{"text": "Buyers Guide", "href": "/home-buying-guide/"}, {"text": "Foreclosure center", "href": "/foreclosures/"}, {"text": "Real estate app", "href": "/mobile/realestate/"}, {"text": "Find a buyer's agent", "href": "/real-estate-agent-reviews/?service=Buying"}], [{"text": "Schools in New York", "href": "/new-york-ny/schools/"}]]}]}, {"link": {"text": "Rent", "href": "/homes/for_rent/", "classString": "noroute"}, "subsections": [{"title": "New York rentals", "links": [{"text": "Rental Buildings", "href": "/new-york-ny/rental-buildings/", "classString": "noroute"}, {"text": "Apartments for rent", "href": "/new-york-ny/apartments/", "classString": "noroute"}, {"text": "Houses for rent", "href": "/new-york-ny/rent-houses/", "classString": "noroute"}, {"text": "All rental listings", "href": "/new-york-ny/rentals/", "classString": "noroute"}, {"text": "All rental buildings", "href": "/browse/b/"}]}, {"title": "Renter tools", "links": [{"text": "Applications", "href": "/renter-hub/applications", "gaClickEventObj": {"category": "renter_tools", "action": "click", "label": "applications"}}, {"text": "Payments", "href": "/renter-hub/payments/", "isNoFollow": true, "gaClickEventObj": {"category": "renter_tools", "action": "click", "label": "payments"}}, {"text": "Leases", "href": "/renter-hub/leasing/home/", "gaClickEventObj": {"category": "renter_tools", "action": "click", "label": "leases"}}, {"text": "Affordability calculator", "href": "/rent-affordability-calculator/", "gaClickEventObj": {"category": "renter_tools", "action": "click", "label": "affordability"}}, {"text": "Renters guide", "href": "/rent/guide/", "gaClickEventObj": {"category": "renter_tools", "action": "click", "label": "guide"}}]}], "gaHoverEventObj": {"category": "nav_menu", "action": "mouseover", "label": "rent"}, "gaExpandoClickObj": {"category": "nav_menu", "action": "click_down", "label": "rent"}}, {"link": {"text": "Sell", "href": "/sell/"}, "subsections": [{"title": "Resources", "links": [{"text": "Explore your options", "href": "/sell/"}, {"text": "See your home's Zestimate", "href": "/how-much-is-my-home-worth/"}, {"text": "New York Home values", "href": "/new-york-ny/home-values/"}, {"text": "Sellers guide", "href": "/sellers-guide/"}]}, {"title": "Selling options", "links": [{"text": "Sell with Zillow Offers", "href": "/offers/?t=zo-topnav"}, {"text": "Find a seller's agent", "href": "/new-york-ny/real-estate-agent-reviews/?service=Selling"}, {"text": "Post For Sale by Owner", "href": "/for-sale-by-owner/"}]}]}, {"link": {"text": "Home Loans", "href": "/home-loans/#source=Z_Mortgagestopnav"}, "subsections": [{"title": "Shop mortgages", "links": [{"text": "Mortgage lenders", "href": "/mortgages/#source=Z_Mortgageshovertopnav"}, {"text": "HELOC lenders", "href": "/mortgages/heloc/#source=Z_Mortgageshovertopnav"}, {"text": "Mortgage rates", "href": "/mortgage-rates/ny/new-york/"}, {"text": "Refinance rates", "href": "/refinance/ny/new-york/"}, {"text": "All mortgage rates", "href": "/mortgage/browse/"}]}, {"title": "Calculators", "links": [{"text": "Mortgage calculator", "href": "/mortgage-calculator/"}, {"text": "Refinance calculator", "href": "/mortgage-calculator/refinance-calculator/"}, {"text": "Affordability calculator", "href": "/mortgage-calculator/house-affordability/"}, {"text": "Amortization calculator", "href": "/mortgage-calculator/amortization-schedule-calculator/"}, {"text": "Debt-to-Income calculator", "href": "/mortgage-calculator/debt-to-income-calculator/"}]}, {"title": "Resources", "links": [{"text": "Lender reviews", "href": "/lender-directory/"}, {"text": "Mortgage learning center", "href": "/mortgage-learning/"}, {"text": "Mortgages app", "href": "/mobile/mortgages/"}, {"text": "Lender resource center", "href": "/lender-resources/"}]}]}, {"link": {"text": "Agent finder", "href": "/new-york-ny/real-estate-agent-reviews/"}, "subsections": [{"title": "Looking for pros?", "links": [[{"text": "Real estate agents", "href": "/new-york-ny/real-estate-agent-reviews/"}, {"text": "Property managers", "href": "/new-york-ny/property-manager-reviews/"}, {"text": "Home inspectors", "href": "/new-york-ny/home-inspector-reviews/"}, {"text": "Other pros", "href": "/new-york-ny/real-estate-services-reviews/"}], [{"text": "Home improvement pros", "href": "/new-york-ny/home-improvement-reviews/"}, {"text": "Home builders", "href": "/home-builders/new-york-ny/6181/"}, {"text": "Real estate photographers", "href": "/new-york-ny/photographer-reviews/"}]]}, {"title": "I'm a pro", "links": [[{"text": "Agent advertising", "href": "https://premieragent.zillow.com/products/advertising/?itc=paw_z_sitewide-agentfinder_subnav-advertising_pa-ads_a_null"}, {"text": "Agent resource center", "href": "/agent-resources/"}, {"text": "Create a free agent account", "href": "https://premieragent.zillow.com/products/agent-account/?itc=paw_z_sitewide-agentfinder_subnav-createagentaccount_pa-reg_a_null"}], [{"text": "Real estate business plan", "href": "/agent-resources/agent-toolkit/real-estate-business-plan-template/"}, {"text": "Real estate agent scripts", "href": "/agent-resources/agent-toolkit/real-estate-follow-up-email-templates/"}, {"text": "Listing flyer templates", "href": "/agent-resources/agent-toolkit/real-estate-listing-flyer-templates/"}]]}]}]}, "marketing": {"sections": [{"link": {"text": "Manage Rentals", "href": "/rental-manager/?source=topnav&itc=postbutton_sitenav", "classString": "noroute"}, "classString": "znav-manage-rentals", "id": "manage-rentals", "gaHoverEventObj": {"category": "nav_menu", "action": "mouseover", "label": "manage_rentals"}, "gaExpandoClickObj": {"category": "nav_menu", "action": "click_down", "label": "manage_rentals"}, "subsections": [{"title": "Rental Management Tools", "links": [[{"text": "List a rental", "href": "/rental-manager/post-a-listing?itc=ltr_zw_ltr_zrm-home_tpnv_post-a-listing", "id": "list_a_rental", "classString": "noroute", "gaClickEventObj": {"category": "manage_rentals", "action": "click", "label": "list"}}, {"text": "My Listings", "href": "/rental-manager/select-property?type=listings&source=topnav&itc=postbutton_topnav", "id": "my_listings", "classString": "noroute", "gaClickEventObj": {"category": "manage_rentals", "action": "click", "label": "listing"}}, {"text": "Messages", "href": "/rental-manager/inbox/", "id": "messages", "classString": "noroute", "gaClickEventObj": {"category": "manage_rentals", "action": "click", "label": "messages"}}, {"text": "Applications", "href": "/rental-manager/select-property?type=applications&source=topnav&itc=postbutton_topnav", "id": "applications", "classString": "noroute", "gaClickEventObj": {"category": "manage_rentals", "action": "click", "label": "applications"}}, {"text": "Leases", "href": "/rental-manager/select-property?type=leases&source=topnav&itc=postbutton_topnav", "id": "leases", "classString": "noroute", "gaClickEventObj": {"category": "manage_rentals", "action": "click", "label": "leases"}}, {"text": "Payments", "href": "/rental-manager/select-property?type=payments&source=topnav&itc=postbutton_topnav", "id": "payments", "classString": "noroute", "gaClickEventObj": {"category": "manage_rentals", "action": "click", "label": "payments"}}]]}, {"title": "Learn More", "links": [[{"text": "Zillow Rental Manager", "href": "/rental-manager/?source=topnav&itc=list_zrm_topnav", "id": "zrm", "classString": "noroute", "gaClickEventObj": {"category": "manage_rentals", "action": "click", "label": "about"}}, {"text": "Resource Center", "href": "/rental-manager/resources/", "id": "resource_center", "classString": "noroute", "gaClickEventObj": {"category": "manage_rentals", "action": "click", "label": "resource"}}, {"text": "Help Center", "href": "https://help.zillowrentalmanager.com/hc/en-us/", "id": "help_center", "classString": "noroute", "gaClickEventObj": {"category": "manage_rentals", "action": "click", "label": "help"}}]]}]}, {"link": {"text": "Advertise", "href": "/marketing/advertise/"}}]}, "regLogin": {"sections": [{"link": {"text": "Sign in", "href": "/user/acct/login/"}}, {"link": {"text": "Join", "href": "/user/acct/register/"}}]}, "help": {"sections": [{"link": {"text": "Help", "href": "https://zillow.zendesk.com/hc/en-us/"}}]}, "common": {"home": {"text": "Zillow Real Estate", "href": "/"}, "advertise": {"text": "Advertise", "href": "/advertise/"}, "login": {"text": "Sign in", "href": "/user/acct/login/"}, "register": {"text": "Join", "href": "/user/acct/register/"}}}}, "core": {"js": "https://s.zillowstatic.com/s3/pfs/core-80fe6e46f3627c5d70fe.js"}}, "big": [{"url": "https://maps.googleapis.com/maps/api/streetview?location=200+W+14th+St%2C+New+York%2C+NY+10011&size=550x413&key=AIzaSyARFMLB1na-BBWf7_R3-5YOQQaHqEJf6RQ&source=outdoor&&signature=Zrbr0Z9VqMcx_05-nyIfy_lGyHA=", "width": 550, "subjectType": "UNKNOWN"}], "small": [{"url": "https://maps.googleapis.com/maps/api/streetview?location=200+W+14th+St%2C+New+York%2C+NY+10011&size=316x234&key=AIzaSyARFMLB1na-BBWf7_R3-5YOQQaHqEJf6RQ&source=outdoor&&signature=Af_rF8RteAUxEIAGEre9zUARy-s=", "width": 316, "subjectType": "UNKNOWN"}], "streetViewTileImageUrlHalfWidthLatLong": "https://maps.googleapis.com/maps/api/streetview?location=40.738572,-73.999721&size=512x234&key=AIzaSyARFMLB1na-BBWf7_R3-5YOQQaHqEJf6RQ&source=outdoor&signature=OFiDV4uKji-9mRIRe_7oqsBVCSY=", "streetViewTileImageUrlHalfWidthAddress": "https://maps.googleapis.com/maps/api/streetview?location=200%20W%2014th%20St%2C%20New%20York%2C%20NY%2010011&size=512x234&key=AIzaSyARFMLB1na-BBWf7_R3-5YOQQaHqEJf6RQ&source=outdoor&signature=KiBtnY-gdTRJYbWFHIyl2wIiaI8=", "mapTileGoogleMapUrlSmall": "https://maps.googleapis.com/maps/api/staticmap?center=40.738572,-73.999721&zoom=14&size=280x208&maptype=roadmap&key=AIzaSyARFMLB1na-BBWf7_R3-5YOQQaHqEJf6RQ&scale=2&signature=Mo9M0Rz7uF6ivVmM98uyRhQRys4=", "mapTileGoogleMapUrlFullWidthLightbox": "https://maps.googleapis.com/maps/api/staticmap?center=40.738572,-73.999721&zoom=16&size=1024x234&maptype=roadmap&key=AIzaSyARFMLB1na-BBWf7_R3-5YOQQaHqEJf6RQ&scale=2&signature=B7P-MOg54ivF0SYI3SpNvXENdGE=", "mapTileGoogleMapUrlFullWidthMax": "https://maps.googleapis.com/maps/api/staticmap?center=40.738572,-73.999721&zoom=16&size=1920x234&maptype=roadmap&key=AIzaSyARFMLB1na-BBWf7_R3-5YOQQaHqEJf6RQ&scale=1&signature=ViGI87zPCJWnbi80YkuEeJ4FnAE=", "mapTileGoogleMapUrlSmallWholeZipcode": "https://maps.googleapis.com/maps/api/staticmap?center=40.738572,-73.999721&zoom=12&size=280x208&maptype=roadmap&key=AIzaSyARFMLB1na-BBWf7_R3-5YOQQaHqEJf6RQ&scale=2&signature=tDttNnK659BMxMDy3_b4k-0kOPw=", "mapTileGoogleMapUrlFullWidthLightboxWholeZipcode": "https://maps.googleapis.com/maps/api/staticmap?center=40.738572,-73.999721&zoom=12&size=1024x234&maptype=roadmap&key=AIzaSyARFMLB1na-BBWf7_R3-5YOQQaHqEJf6RQ&scale=2&signature=gLX1zZJJsRBdbZy_5-N5JOeVEq4=", "mapTileGoogleMapUrlFullWidthMaxWholeZipcode": "https://maps.googleapis.com/maps/api/staticmap?center=40.738572,-73.999721&zoom=12&size=1920x234&maptype=roadmap&key=AIzaSyARFMLB1na-BBWf7_R3-5YOQQaHqEJf6RQ&scale=1&signature=adZ7seVt2bKx71fDPNfynK4fUrg=", "localProtections": {"level": "state", "statePageUrl": "http://www.lgbtmap.org/equality_maps/profile_state/NY", "protections": [{"covers": {"genderIdentity": true, "sexualOrientation": true}, "description": "Protection from being unfairly fired, not hired, or discriminated against in the workplace by private employers.", "type": "Employment"}, {"covers": {"genderIdentity": true, "sexualOrientation": true}, "description": "Protection from being unfairly evicted, denied housing, or refused the ability to rent or buy housing.", "type": "Housing"}, {"covers": {"genderIdentity": true, "sexualOrientation": true}, "description": "Protection from being unfairly refused services or entry to or from places accessible to the public (retail stores, restaurants, parks, hotels, etc).", "type": "Public Accommodations"}]}}, "viewer": null, "abTests": {"HDP_WOW_PANO": "ON", "HDP_HIGHER_3D": "ON", "KeystoneEvents3DHome": "SEND_EVENT", "z3dNavArrowStyle": null, "rmxTiledPano": "ON", "UnassistedHomeShowingWeb": "TREATMENT", "ARCS_LISTING_AGENT_RELOCATION": "CONTROL", "ARCS_REGION_PHONE": "ON", "ARCS_BAL_RADIO_REMOVAL": "CONTROL", "ARCS_PREAPPROVAL_CHECK": "CONTROL", "ARCS_REMOVE_FINANCING": "CONTROL", "ARCS_THREE_BUTTONS_APPS": "ON_FOR_IOS", "ARCS_THREE_BUTTONS_APPS_ANDROID": "ON", "ACT_THREE_ICON_CTA": "ON", "IMX_LIGHTBOX": "CONTROL", "PERS_SHARED_FAVORITES": "CONTROL", "PERS_SHARED_FAVORITES_FEATURE": "FEATURES_ON", "HDP_WOW_RESO_FACTSFEATURES": "ON", "SXP_HDP_CONTINGENT_V2": "ON", "HDP_OPEN_HOUSE_SAVE": "APP_ONLY", "HDP_OPEN_HOUSE_SAVE_WEB": "CONTROL", "ARCS_WOW_LISTING_AGENT_ATTRIBUTION": "ON", "ARCS_OPAQUE_EXPANSION": "CONTROL", "ARCS_EXPANDED_OPAQUE_SELLER_TITLE": "ON", "AB_DASHBOARD_AA_TEST": "CONTROL", "ACT_THREE_ICON_CTA_TOUR_TEXT": "CONTROL", "ADT_DESKTOP_HDP_CALLOUT": "SAVE_AND_SHARE", "ADT_HDP_CALLOUT": "SAVE_AND_SHARE", "AndroidMagellanHDP": "MAGELLAN_HDP_ON", "AR_CSAT_ONSITE_HDP": "CONTROL", "AR_CSAT_MODAL_HDP_LOAD_DELAY": "CONTROL", "ARCS_APPS_REWRITE": "ON", "ARCS_ASK_A_QUESTION": "CONTROL", "ARCS_BAL_REWRITE": "ON", "ARCS_CLIENT_GEN_LEAD_ID": "CONTROL", "ARCS_FEATURED_REWRITE": "ON", "ARCS_FORECLOSURE_REWRITE": "ON", "ARCS_GET_A_CALL": "ON", "ARCS_INLINE_TOUR": "ON_BUYERS_AGENT", "ARCS_INLINE_TOUR_SECTION": "CONTROL", "ARCS_LEAD_SUBMISSION": "CONTROL", "ARCS_MY_AGENT_REWRITE": "CONTROL", "ARCS_OPAQUE_EXPANSION_VALUE_PROPS": "CONTROL", "ARCS_OPAQUE_REWRITE": "ON", "ARCS_OWNER_REWRITE": "ON", "ARCS_SCHEDULE_A_TOUR_DESKTOP": "ON", "ARCS_SCHEDULE_A_TOUR_MOBILE": "ON", "ARCS_TOUR_TYPE_TEXT": "VIRTUAL", "ARCS_TOUR_REWRITE": "ON", "ARCS_VIRTUAL_TOUR": "ON", "CDP_SERVICE": "ON", "HDP_3D_WITH_BANNER": "CONTROL", "HDP_AD_MWEB": "CONTROL", "HDP_AND_SEARCH_MAGELLAN": "ON", "HDP_CLASSIC_OM_REFI_UPSELL": "ON", "HDP_COMMUTE_REDESIGN": "CONTROL", "HDP_COMMUTE_SOURCE": "TRULIA_SHADOW", "HDP_DQ_FS_OTHER": "CONTROL", "HDP_DQ_FSBA": "CONTROL", "HDP_DQ_NC": "CONTROL", "HDP_DQ_NFS_RS": "CONTROL", "HDP_DQ_OVERRIDE": "CONTROL", "HDP_FULL_SSR_FS_POT": "ON", "HDP_FULL_SSR_NC": "CONTROL", "HDP_FULL_SSR_NFS": "CONTROL", "HDP_FULL_SSR_RENT": "CONTROL", "HDP_GOOGLE_STREETVIEW": "CONTROL", "HDP_HOMES_FOR_YOU_RECS_PLACEMENT": "CONTROL", "HDP_SKINNY_MAP_AND_FACTS": "ON_SHORT_FACTS", "HDP_SKINNY_MODULE_UPDATES": "ON", "HDP_TOP_NAV_TOP_ONLY": "ON", "HDP_WEBVIEW_ZO_UPSELL": "ON", "HDP_WOW_CLASSIC_MWEB": "CLASSIC_WOW", "HDP_WOW_FSBA": "ON", "HDP_WOW_MORTGAGE_ITERATIONS": "CONTROL", "HDP_WOW_RS_AND_NFS": "CONTROL", "HDP_WOW_RS_AND_NFS_UPSELL": "REFI_UPSELL", "HDP_ZESTIMATE_LIST_PRICE": "V1", "HDP_ZO_ABAD_NOTIFICATION": "ON", "HDP_ZO_DATA_BAL": "CONTROL", "HDP_ZO_WARRANTY_VP": "BOTH_ON", "INSTANTOFFERS_UPSELLS_FORSALE": "BUY_SELL", "IOS_MAGELLAN_HDP": "ON", "NOOP": null, "OM_NOO_ZO_ELIGIBLE_RENTAL_UPSELL": "ON", "RE_BlendedHomeRecsModule": "CONTROL", "RE_COVID_Tours": "REMOVE_TOUR", "RE_LocalLegalProtections": "CONTROL", "RE_PRODUCT_MARKUP": "CONTROL", "SEOTEST__RE_ExpandedDescriptions_percents": [{"treatment": "TEST", "percent": 50}, {"treatment": "CONTROL", "percent": 50}], "RR_MF_OFFICE_HOUR_TOURS": "ON", "RR_REAL_TIME_MF_TOUR_SCHEDULING": "CONTROL", "RR_RENTER_PROFILE_V2": "CONTROL", "RR_RENTER_PROFILE_V2_APPS": "CONTROL", "SEOTEST__PERMITS_GA": "ON", "SXP_HDP_BLUE_TO_RED": "ON", "TR_REQUEST_CREATE_HTH": "CONTROL", "WEB_ZO_HOMEACCESS_SELFTOURNAME": "SELFTOUR", "WEB_ZO_SELFTOURPRIMARY": "ON_PRIMARY", "Z3dHdpPhotoWallTreatment": null, "ZO_ABC_SellingQuestion": "CONTROL", "ZO_Rewards_FSHDP_Upsell": "CONTROL", "ZO_UPSELL_CHECK_FROM_OASIS": "ON", "ZO_OMHDP_Inline_Upsell": "CONTROL", "ZOB_TOUR_ONBOARDING_WEB": "CALENDAR_REMINDER", "VL_WOW_BDP_DESKTOP": "WOW_BDP", "VL_WOW_BDP_MWEB": "WOW_BDP"}}, "price_change": {"property": {"homeValueChartData": [{"points": [{"x": 1454227200000, "y": 6127}, {"x": 1459411200000, "y": 5796}, {"x": 1462003200000, "y": 5760}, {"x": 1464681600000, "y": 5822}, {"x": 1469952000000, "y": 6064}, {"x": 1485849600000, "y": 5969}, {"x": 1514707200000, "y": 4846}, {"x": 1517385600000, "y": 4940}, {"x": 1522483200000, "y": 4641}, {"x": 1525075200000, "y": 4721}, {"x": 1527753600000, "y": 4782}, {"x": 1530345600000, "y": 4692}, {"x": 1556611200000, "y": 4622}, {"x": 1559289600000, "y": 4595}, {"x": 1561881600000, "y": 4572}, {"x": 1564560000000, "y": 4583}, {"x": 1567238400000, "y": 4526}, {"x": 1569830400000, "y": 4447}, {"x": 1575100800000, "y": 4295}, {"x": 1580457600000, "y": 4026}], "name": "Greenwich Village"}, {"points": [{"x": 1435651200000, "y": 2154}, {"x": 1438329600000, "y": 2184}, {"x": 1441008000000, "y": 2213}, {"x": 1443600000000, "y": 2237}, {"x": 1446278400000, "y": 2263}, {"x": 1448870400000, "y": 2280}, {"x": 1451548800000, "y": 2286}, {"x": 1454227200000, "y": 2292}, {"x": 1456732800000, "y": 2298}, {"x": 1459411200000, "y": 2303}, {"x": 1462003200000, "y": 2305}, {"x": 1464681600000, "y": 2306}, {"x": 1467273600000, "y": 2316}, {"x": 1469952000000, "y": 2327}, {"x": 1472630400000, "y": 2338}, {"x": 1475222400000, "y": 2346}, {"x": 1477900800000, "y": 2358}, {"x": 1480492800000, "y": 2362}, {"x": 1483171200000, "y": 2359}, {"x": 1485849600000, "y": 2365}, {"x": 1488268800000, "y": 2368}, {"x": 1490947200000, "y": 2357}, {"x": 1493539200000, "y": 2343}, {"x": 1496217600000, "y": 2344}, {"x": 1498809600000, "y": 2351}, {"x": 1501488000000, "y": 2356}, {"x": 1504166400000, "y": 2363}, {"x": 1506758400000, "y": 2363}, {"x": 1509436800000, "y": 2361}, {"x": 1512028800000, "y": 2351}, {"x": 1514707200000, "y": 2345}, {"x": 1517385600000, "y": 2340}, {"x": 1519804800000, "y": 2333}, {"x": 1522483200000, "y": 2328}, {"x": 1525075200000, "y": 2324}, {"x": 1527753600000, "y": 2332}, {"x": 1530345600000, "y": 2339}, {"x": 1533024000000, "y": 2348}, {"x": 1535702400000, "y": 2349}, {"x": 1538294400000, "y": 2354}, {"x": 1540972800000, "y": 2351}, {"x": 1543564800000, "y": 2352}, {"x": 1546243200000, "y": 2352}, {"x": 1548921600000, "y": 2358}, {"x": 1551340800000, "y": 2355}, {"x": 1554019200000, "y": 2349}, {"x": 1556611200000, "y": 2344}, {"x": 1559289600000, "y": 2344}, {"x": 1561881600000, "y": 2350}, {"x": 1564560000000, "y": 2356}, {"x": 1567238400000, "y": 2361}, {"x": 1569830400000, "y": 2365}, {"x": 1572508800000, "y": 2405}, {"x": 1575100800000, "y": 2431}, {"x": 1577779200000, "y": 2435}, {"x": 1580457600000, "y": 2387}], "name": "New York"}]}}}
][
{"info": {"property": {"id": "UHJvcGVydHk6MjA3OTA4NzQ3MA==", "stateId": 43, "countyId": 2452, "cityId": 6181, "isFeatured": false, "zpid": 2079087470, "city": "New York", "state": "NY", "homeStatus": "FOR_RENT", "isUndisclosedAddress": false, "address": {"streetAddress": "200 W 14th St #3E", "city": "New York", "state": "NY", "zipcode": "10011", "neighborhood": "Greenwich Village", "community": null, "subdivision": null}, "isListingClaimedByCurrentSignedInUser": false, "isCurrentSignedInAgentResponsible": false, "bedrooms": 4, "bathrooms": 1, "price": 6250, "yearBuilt": null, "streetAddress": "200 W 14th St #3E", "zipcode": "10011", "adTargets": {"aamgnrc2": " 3E", "zip": "10011", "aamgnrc1": "200 W 14th St", "mlat": "40.738572", "bd": "4", "fsbid": "13501", "z_listing_image_url": "", "zusr": "true", "city": "New_York", "proptp": "mfh", "pid": "2079087470", "hood": "Greenwich_Village", "listtp": "rent_general", "zguidh": "5210326328842460928", "premieragent": "no", "price": "6250", "dma": "43", "posting_url": "", "state": "NY", "mlong": "-73.999721", "cnty": "New_York", "prange": "6000-6999"}, "solarPotential": null, "brokerId": 13501, "latitude": 40.738572, "longitude": -73.999721, "countyFIPS": null, "parcelId": null, "currency": "USD", "homeType": "MULTI_FAMILY", "homeFacts": {"aboveFactsAndFeaturesCategories": null, "atAGlanceFacts": [{"factLabel": "Date available", "factValue": "6/25"}, {"factLabel": "Type", "factValue": "Multi Family"}, {"factLabel": "Cooling", "factValue": null}, {"factLabel": "Heating", "factValue": null}, {"factLabel": "Pets", "factValue": "Contact manager"}, {"factLabel": "Parking", "factValue": "No Data"}, {"factLabel": "Laundry", "factValue": null}, {"factLabel": "Deposit & fees", "factValue": null}, {"factLabel": "Price/sqft", "factValue": null}], "categoryDetails": [{"categoryGroupName": "Rental Facts", "categories": [{"categoryName": "", "categoryFacts": [{"factLabel": "Date available", "factValue": "6/25"}, {"factLabel": "Pets", "factValue": "Contact manager"}, {"factLabel": "Posted", "factValue": "1 hour ago"}]}]}, {"categoryGroupName": "Interior Features", "categories": [{"categoryName": "Bedrooms", "categoryFacts": [{"factLabel": "Beds", "factValue": "4"}]}]}, {"categoryGroupName": "Construction", "categories": [{"categoryName": "Type and Style", "categoryFacts": [{"factLabel": null, "factValue": "Multi Family"}]}]}, {"categoryGroupName": "Other", "categories": [{"categoryName": "", "categoryFacts": [{"factLabel": null, "factValue": "No Fee, Nyc Evacuation 5"}]}]}, {"categoryGroupName": "Activity On Zillow", "categories": [{"categoryName": "", "categoryFacts": [{"factLabel": "Days on Zillow", "factValue": "Less than 1"}, {"factLabel": "Views since listing", "factValue": "14"}, {"factLabel": null, "factValue": "0 shoppers saved this home"}]}]}]}, "resoFacts": {"bedrooms": 4, "bathrooms": 1, "bathroomsFull": 0, "bathroomsThreeQuarter": 0, "bathroomsHalf": 0, "bathroomsOneQuarter": 0, "bathroomsPartial": null, "mainLevelBathrooms": null, "rooms": [], "basement": null, "flooring": null, "heating": null, "hasHeating": null, "cooling": null, "hasCooling": null, "appliances": null, "laundryFeatures": null, "fireplaces": null, "fireplaceFeatures": null, "hasFireplace": null, "furnished": false, "commonWalls": null, "buildingArea": null, "livingArea": null, "aboveGradeFinishedArea": null, "belowGradeFinishedArea": null, "virtualTour": "", "parking": null, "parkingFeatures": null, "garageSpaces": null, "coveredSpaces": null, "hasAttachedGarage": false, "hasGarage": null, "openParkingSpaces": null, "hasOpenParking": false, "carportSpaces": null, "hasCarport": false, "otherParking": null, "accessibilityFeatures": null, "levels": null, "stories": null, "entryLevel": null, "entryLocation": null, "hasPrivatePool": null, "hasSpa": null, "spaFeatures": null, "exteriorFeatures": null, "patioAndPorchFeatures": null, "fencing": null, "view": null, "hasView": null, "hasWaterfrontView": null, "waterfrontFeatures": null, "frontageType": null, "frontageLength": null, "topography": null, "woodedArea": null, "vegetation": null, "canRaiseHorses": false, "lotSize": null, "lotSizeDimensions": null, "otherStructures": null, "additionalParcelsDescription": null, "hasAdditionalParcels": false, "parcelNumber": null, "hasAttachedProperty": false, "hasLandLease": false, "landLeaseAmount": null, "zoning": null, "zoningDescription": null, "homeType": "Multi Family", "architecturalStyle": null, "constructionMaterials": null, "foundationDetails": null, "roofType": null, "windowFeatures": null, "propertyCondition": null, "isNewConstruction": false, "yearBuilt": null, "developmentStatus": null, "yearBuiltEffective": null, "onMarketDate": 1592405400000, "builderModel": null, "builderName": "", "hasHomeWarranty": false, "electric": null, "hasElectricOnProperty": null, "gas": null, "sewer": null, "waterSources": null, "utilities": null, "greenBuildingVerificationType": null, "greenEnergyEfficient": null, "greenIndoorAirQuality": null, "greenSustainability": null, "greenWaterConservation": null, "numberOfUnitsInCommunity": null, "numberOfUnitsVacant": null, "storiesTotal": null, "hasPetsAllowed": true, "hasRentControl": false, "buildingFeatures": null, "structureType": null, "buildingName": null, "elementarySchool": "", "elementarySchoolDistrict": "", "middleOrJuniorSchool": "", "middleOrJuniorSchoolDistrict": "", "highSchool": "", "highSchoolDistrict": "", "securityFeatures": null, "communityFeatures": null, "isSeniorCommunity": false, "cityRegion": "New York", "associationFee": null, "hasAssociation": null, "associationAmenities": null, "associationFeeIncludes": null, "associationName": null, "associationPhone": null, "associationFee2": null, "associationName2": null, "associationPhone2": null, "taxAssessedValue": null, "taxAnnualAmount": null, "listingId": null, "buildingAreaSource": null, "otherFacts": [{"name": null, "value": "No Fee"}, {"name": null, "value": "Nyc Evacuation 5"}]}, "description": "*no fee for limited time\nPrime West Village/Chelsea Location! \nEnormous 4 BR apartment with a Large Living Room.\nThis unit is an amazing deal. Many open windows with tons of light, prewar details, hardwood floors, high ceilings, eat in kitchen! \nLocated on 14th street and 7th Avenue most sought after West Village/Chelsea location. Steps to the subway, coffeehouses, restaurants and bars. \nPerfect for shares!", "whatILove": null, "isListedByOwner": false, "contingentListingType": null, "isCommunityPillar": false, "listingCollectionConfig": null, "listingProvider": {"logos": [], "postingWebsiteURL": null, "title": "Listing Provided by", "disclaimerText": null, "enhancedVideoURL": null, "enhancedDescriptionText": null, "showLogos": null, "showNoContactInfoMessage": false, "agentName": "Peter Rohani", "phoneNumber": "(917) 587-2447", "agentLicenseNumber": null, "postingWebsiteLinkText": "AJ Clarke", "postingGroupName": "AJ Clarke", "sourceText": "Source: StreetEasy", "isZRMSourceText": false}, "building": null, "timeOnZillow": "1 hour", "pageViewCount": 14, "favoriteCount": 0, "country": "USA", "hdpUrl": "/homedetails/200-W-14th-St-3E-New-York-NY-10011/2079087470_zpid/", "openHouseSchedule": [], "desktopWebHdpImageLink": "https://maps.googleapis.com/maps/api/streetview?location=200+W+14th+St%2C+New+York%2C+NY+10011&size=550x413&key=AIzaSyARFMLB1na-BBWf7_R3-5YOQQaHqEJf6RQ&source=outdoor&&signature=Zrbr0Z9VqMcx_05-nyIfy_lGyHA=", "brokerageName": "AJ Clarke", "timeZone": "America/New_York", "enhancedBrokerImageUrl": null, "listing_sub_type": {"is_FSBA": false, "is_FSBO": false, "is_pending": false, "is_newHome": false, "is_foreclosure": false, "is_bankOwned": false, "is_forAuction": false, "is_comingSoon": false, "is_openHouse": false}, "livingArea": null, "tourPhotos": [{"url": "https://maps.googleapis.com/maps/api/streetview?location=200+W+14th+St%2C+New+York%2C+NY+10011&size=400x300&key=AIzaSyARFMLB1na-BBWf7_R3-5YOQQaHqEJf6RQ&source=outdoor&&signature=fbA_b-neuGUo8_fK2ybNz7Nib2I="}], "hdpTypeDimension": "ForRent", "providerListingID": "3z9nwkk92wp47", "mlsid": null, "zestimate": null, "propertyTypeDimension": "Multi Family", "hiResImageLink": "https://maps.googleapis.com/maps/api/streetview?location=200+W+14th+St%2C+New+York%2C+NY+10011&size=1025x768&key=AIzaSyARFMLB1na-BBWf7_R3-5YOQQaHqEJf6RQ&source=outdoor&&signature=rjY3hfllsfrQGQTo4xx2rhuYwPo=", "isZillowOwned": false, "tourEligibility": {"isPropertyTourEligible": false}, "isPremierBuilder": false, "moveInReady": false, "newConstructionType": null, "zestimateLowPercent": null, "zestimateHighPercent": null, "rentZestimate": null, "restimateLowPercent": null, "restimateHighPercent": null, "nearbyCities": null, "nearbyNeighborhoods": [{"regionUrl": {"path": "/east-harlem-manhattan-new-york-ny/"}, "name": "East Harlem", "body": {"neighborhood": "East Harlem", "city": "New York", "state": "NY"}}, {"regionUrl": {"path": "/east-village-manhattan-new-york-ny/"}, "name": "East Village", "body": {"neighborhood": "East Village", "city": "New York", "state": "NY"}}, {"regionUrl": {"path": "/gravesend-new-york-ny/"}, "name": "Gravesend", "body": {"neighborhood": "Gravesend", "city": "New York", "state": "NY"}}, {"regionUrl": {"path": "/harlem-manhattan-new-york-ny/"}, "name": "Harlem", "body": {"neighborhood": "Harlem", "city": "New York", "state": "NY"}}, {"regionUrl": {"path": "/lower-east-side-manhattan-new-york-ny/"}, "name": "Lower East Side", "body": {"neighborhood": "Lower East Side", "city": "New York", "state": "NY"}}, {"regionUrl": {"path": "/midwood-new-york-ny/"}, "name": "Midwood", "body": {"neighborhood": "Midwood", "city": "New York", "state": "NY"}}, {"regionUrl": {"path": "/sheepshead-bay-new-york-ny/"}, "name": "Sheepshead Bay", "body": {"neighborhood": "Sheepshead Bay", "city": "New York", "state": "NY"}}, {"regionUrl": {"path": "/upper-east-side-manhattan-new-york-ny/"}, "name": "Upper East Side", "body": {"neighborhood": "Upper East Side", "city": "New York", "state": "NY"}}, {"regionUrl": {"path": "/upper-west-side-new-york-ny/"}, "name": "Upper West Side", "body": {"neighborhood": "Upper West Side", "city": "New York", "state": "NY"}}, {"regionUrl": {"path": "/washington-heights-manhattan-new-york-ny/"}, "name": "Washington Heights", "body": {"neighborhood": "Washington Heights", "city": "New York", "state": "NY"}}], "nearbyZipcodes": [{"regionUrl": {"path": "/manhattan-new-york-ny-10002/"}, "name": "10002", "body": {"zipcode": "10002", "city": "New York", "state": "NY"}}, {"regionUrl": {"path": "/manhattan-new-york-ny-10003/"}, "name": "10003", "body": {"zipcode": "10003", "city": "New York", "state": "NY"}}, {"regionUrl": {"path": "/manhattan-new-york-ny-10009/"}, "name": "10009", "body": {"zipcode": "10009", "city": "New York", "state": "NY"}}, {"regionUrl": {"path": "/manhattan-new-york-ny-10011/"}, "name": "10011", "body": {"zipcode": "10011", "city": "New York", "state": "NY"}}, {"regionUrl": {"path": "/manhattan-new-york-ny-10016/"}, "name": "10016", "body": {"zipcode": "10016", "city": "New York", "state": "NY"}}, {"regionUrl": {"path": "/manhattan-new-york-ny-10019/"}, "name": "10019", "body": {"zipcode": "10019", "city": "New York", "state": "NY"}}, {"regionUrl": {"path": "/manhattan-new-york-ny-10023/"}, "name": "10023", "body": {"zipcode": "10023", "city": "New York", "state": "NY"}}, {"regionUrl": {"path": "/manhattan-new-york-ny-10025/"}, "name": "10025", "body": {"zipcode": "10025", "city": "New York", "state": "NY"}}, {"regionUrl": {"path": "/manhattan-new-york-ny-10029/"}, "name": "10029", "body": {"zipcode": "10029", "city": "New York", "state": "NY"}}, {"regionUrl": {"path": "/manhattan-new-york-ny-10128/"}, "name": "10128", "body": {"zipcode": "10128", "city": "New York", "state": "NY"}}], "nearbyBuildingLinks": [{"buildingUrl": {"path": "/b/1011-carroll-pl-bronx-ny-2Pvs/", "text": "1011 Carroll Pl"}}, {"buildingUrl": {"path": "/b/2825-grand-concourse-bronx-ny-5dvL7F/", "text": "2825 Grand Concourse"}}, {"buildingUrl": {"path": "/b/594-union-ave-bronx-ny-5YHQsG/", "text": "594 Union Ave"}}, {"buildingUrl": {"path": "/b/402-monroe-st-hoboken-nj-5Xxdnd/", "text": "402 Monroe St"}}, {"buildingUrl": {"path": "/b/3030-heath-ave-bronx-ny-2Z2n/", "text": "3030 Heath Ave"}}, {"buildingUrl": {"path": "/b/450-w-58th-st-new-york-ny-3JPj/", "text": "450 W 58th St"}}, {"buildingUrl": {"path": "/b/267-lincoln-pl-brooklyn-ny-3QGk/", "text": "267 Lincoln Pl"}}, {"buildingUrl": {"path": "/b/837-bedford-ave-brooklyn-ny-3bRb/", "text": "837 Bedford Ave"}}, {"buildingUrl": {"path": "/b/41-w-8th-st-new-york-ny-3hzZ/", "text": "41 W 8th St"}}, {"buildingUrl": {"path": "/b/96-n-5th-st-brooklyn-ny-9PNYVn/", "text": "96 N 5th St"}}], "listingSource": null, "listingAccount": null, "ownerAccount": null, "lfaViewPropertyPageUrl": null, "listingOwnerConfigIDs": null, "postingPresentationTypes": null, "abbreviatedAddress": "200 W 14th St #3E", "parentRegion": {"name": "Greenwich Village"}, "boroughId": 12530, "neighborhoodSearchUrl": {"path": "/greenwich-village-manhattan-new-york-ny/"}, "stateSearchUrl": {"path": "/ny/"}, "citySearchUrl": {"text": "Homes in New York", "path": "/new-york-ny/"}, "zipcodeSearchUrl": {"path": "/manhattan-new-york-ny-10011/"}, "boroughSearchUrl": {"text": "Homes in Manhattan", "path": "/manhattan-new-york-ny/"}, "communityUrl": null, "taxHistory": [], "priceHistory": [{"time": 1592405400000, "price": 6250, "priceChangeRate": 0, "event": "Listed for rent", "source": "AJ Clarke", "buyerAgent": null, "sellerAgent": null, "showCountyLink": false, "postingIsRental": true}], "schools": [{"distance": 0.4, "name": "Ps 11 William T Harris", "rating": 7, "level": "Primary", "studentsPerTeacher": 15, "assigned": null, "grades": "PK-5", "link": "https://www.greatschools.org/school?id=02058&state=NY", "type": "Public", "size": 920, "totalCount": 1, "isAssigned": true}, {"distance": 4.4, "name": "Life Sciences Secondary School", "rating": 2, "level": "Middle", "studentsPerTeacher": 14, "assigned": null, "grades": "6-12", "link": "https://www.greatschools.org/school?id=06273&state=NY", "type": "Public", "size": 573, "totalCount": 6, "isAssigned": true}, {"distance": 0.3, "name": "Nyc Lab High School For Collaborative Studies", "rating": 8, "level": "High", "studentsPerTeacher": 14, "assigned": null, "grades": "9-12", "link": "https://www.greatschools.org/school?id=02777&state=NY", "type": "Public", "size": 496, "totalCount": 3, "isAssigned": true}], "schoolSearchUrl": {"path": "/new-york-ny/schools/"}, "festimate": null, "homeValues": {"region": {"zhvi": {"yoy": -1.016681158166757, "value": 652307}, "buyerSellerIndex": {"value": 3}, "shortName": "New York", "link": "/new-york-ny/home-values/"}, "parentRegion": {"zhvi": {"yoy": 1.0331833193301778}}}, "nearbyHomes": [{"zpid": 2111597101, "miniCardPhotos": [{"url": "https://maps.googleapis.com/maps/api/streetview?location=205+W+14th+St%2C+New+York%2C+NY+10011&size=316x234&key=AIzaSyARFMLB1na-BBWf7_R3-5YOQQaHqEJf6RQ&source=outdoor&&signature=QelE6Yl1pu0XG4Hj4vj1uvUFBbU="}], "price": 0, "currency": "USD", "bedrooms": null, "bathrooms": null, "livingArea": null, "lotSize": null, "address": {"streetAddress": "205 W 14th St FL 2", "city": "New York", "state": "NY", "zipcode": "10011"}, "latitude": 40.738627, "longitude": -73.999814, "homeStatus": "OTHER", "homeType": "CONDO", "hdpUrl": "/homedetails/205-W-14th-St-FL-2-New-York-NY-10011/2111597101_zpid/", "listing_sub_type": {"is_newHome": false, "is_forAuction": false, "is_bankOwned": false, "is_foreclosure": false, "is_FSBO": false, "is_comingSoon": false, "is_FSBA": false}, "isUndisclosedAddress": false, "isPremierBuilder": false, "state": "NY", "isZillowOwned": false, "moveInReady": false, "newConstructionType": null}, {"zpid": 2104903983, "miniCardPhotos": [{"url": "https://maps.googleapis.com/maps/api/streetview?location=66+7th+Ave%2C+New+York%2C+NY+10011&size=316x234&key=AIzaSyARFMLB1na-BBWf7_R3-5YOQQaHqEJf6RQ&source=outdoor&&signature=bId0B2cZ9VLQkHiikqFgUzZ6Vm0="}], "price": 604344, "currency": "USD", "bedrooms": 0, "bathrooms": 1, "livingArea": null, "lotSize": null, "address": {"streetAddress": "66 7th Ave APT 5C", "city": "New York", "state": "NY", "zipcode": "10011"}, "latitude": 40.7387, "longitude": -73.999702, "homeStatus": "OTHER", "homeType": "MULTI_FAMILY", "hdpUrl": "/homedetails/66-7th-Ave-APT-5C-New-York-NY-10011/2104903983_zpid/", "listing_sub_type": {"is_newHome": false, "is_forAuction": false, "is_bankOwned": false, "is_foreclosure": false, "is_FSBO": false, "is_comingSoon": false, "is_FSBA": false}, "isUndisclosedAddress": false, "isPremierBuilder": false, "state": "NY", "isZillowOwned": false, "moveInReady": false, "newConstructionType": null}, {"zpid": 2112983545, "miniCardPhotos": [{"url": "https://photos.zillowstatic.com/p_c/IS9hny2w9sx0gd0000000000.jpg"}], "price": 776170, "currency": "USD", "bedrooms": 1, "bathrooms": 1, "livingArea": null, "lotSize": null, "address": {"streetAddress": "66 7th Ave APT 4A", "city": "New York", "state": "NY", "zipcode": "10011"}, "latitude": 40.7387, "longitude": -73.9997, "homeStatus": "OTHER", "homeType": "MULTI_FAMILY", "hdpUrl": "/homedetails/66-7th-Ave-APT-4A-New-York-NY-10011/2112983545_zpid/", "listing_sub_type": {"is_newHome": false, "is_forAuction": false, "is_bankOwned": false, "is_foreclosure": false, "is_FSBO": false, "is_comingSoon": false, "is_FSBA": false}, "isUndisclosedAddress": false, "isPremierBuilder": false, "state": "NY", "isZillowOwned": false, "moveInReady": false, "newConstructionType": null}, {"zpid": 2101174982, "miniCardPhotos": [{"url": "https://photos.zillowstatic.com/p_c/ISxzdyelgdzzlz0000000000.jpg"}], "price": 769821, "currency": "USD", "bedrooms": 1, "bathrooms": 1, "livingArea": null, "lotSize": null, "address": {"streetAddress": "66 7th Ave APT 5B", "city": "New York", "state": "NY", "zipcode": "10011"}, "latitude": 40.7387, "longitude": -73.9997, "homeStatus": "OTHER", "homeType": "MULTI_FAMILY", "hdpUrl": "/homedetails/66-7th-Ave-APT-5B-New-York-NY-10011/2101174982_zpid/", "listing_sub_type": {"is_newHome": false, "is_forAuction": false, "is_bankOwned": false, "is_foreclosure": false, "is_FSBO": false, "is_comingSoon": false, "is_FSBA": false}, "isUndisclosedAddress": false, "isPremierBuilder": false, "state": "NY", "isZillowOwned": false, "moveInReady": false, "newConstructionType": null}, {"zpid": 2102123597, "miniCardPhotos": [{"url": "https://photos.zillowstatic.com/p_c/ISd8baqromko621000000000.jpg"}], "price": 776170, "currency": "USD", "bedrooms": 1, "bathrooms": 1, "livingArea": null, "lotSize": null, "address": {"streetAddress": "66 7th Ave APT 3A", "city": "New York", "state": "NY", "zipcode": "10011"}, "latitude": 40.7387, "longitude": -73.9997, "homeStatus": "OTHER", "homeType": "MULTI_FAMILY", "hdpUrl": "/homedetails/66-7th-Ave-APT-3A-New-York-NY-10011/2102123597_zpid/", "listing_sub_type": {"is_newHome": false, "is_forAuction": false, "is_bankOwned": false, "is_foreclosure": false, "is_FSBO": false, "is_comingSoon": false, "is_FSBA": false}, "isUndisclosedAddress": false, "isPremierBuilder": false, "state": "NY", "isZillowOwned": false, "moveInReady": false, "newConstructionType": null}, {"zpid": 2111135356, "miniCardPhotos": [{"url": "https://photos.zillowstatic.com/p_c/IS9hfs4bv56iyi0000000000.jpg"}], "price": 760061, "currency": "USD", "bedrooms": 1, "bathrooms": 1, "livingArea": null, "lotSize": null, "address": {"streetAddress": "200 W 14th St FRNT 3", "city": "New York", "state": "NY", "zipcode": "10011"}, "latitude": 40.738578, "longitude": -73.999877, "homeStatus": "OTHER", "homeType": "MULTI_FAMILY", "hdpUrl": "/homedetails/200-W-14th-St-FRNT-3-New-York-NY-10011/2111135356_zpid/", "listing_sub_type": {"is_newHome": false, "is_forAuction": false, "is_bankOwned": false, "is_foreclosure": false, "is_FSBO": false, "is_comingSoon": false, "is_FSBA": false}, "isUndisclosedAddress": false, "isPremierBuilder": false, "state": "NY", "isZillowOwned": false, "moveInReady": false, "newConstructionType": null}, {"zpid": 2102382321, "miniCardPhotos": [{"url": "https://photos.zillowstatic.com/p_c/ISp9cdijch0c161000000000.jpg"}], "price": 754352, "currency": "USD", "bedrooms": 1, "bathrooms": 1, "livingArea": null, "lotSize": null, "address": {"streetAddress": "200 W 14th St APT 5S", "city": "New York", "state": "NY", "zipcode": "10011"}, "latitude": 40.73858, "longitude": -73.99988, "homeStatus": "OTHER", "homeType": "MULTI_FAMILY", "hdpUrl": "/homedetails/200-W-14th-St-APT-5S-New-York-NY-10011/2102382321_zpid/", "listing_sub_type": {"is_newHome": false, "is_forAuction": false, "is_bankOwned": false, "is_foreclosure": false, "is_FSBO": false, "is_comingSoon": false, "is_FSBA": false}, "isUndisclosedAddress": false, "isPremierBuilder": false, "state": "NY", "isZillowOwned": false, "moveInReady": false, "newConstructionType": null}, {"zpid": 2081945814, "miniCardPhotos": [{"url": "https://photos.zillowstatic.com/p_c/ISn6ng8bx0djba1000000000.jpg"}], "price": 1111564, "currency": "USD", "bedrooms": 1, "bathrooms": 1, "livingArea": null, "lotSize": null, "address": {"streetAddress": "56 7th Ave APT 11F", "city": "New York", "state": "NY", "zipcode": "10011"}, "latitude": 40.738385, "longitude": -73.999807, "homeStatus": "OTHER", "homeType": "MULTI_FAMILY", "hdpUrl": "/homedetails/56-7th-Ave-APT-11F-New-York-NY-10011/2081945814_zpid/", "listing_sub_type": {"is_newHome": false, "is_forAuction": false, "is_bankOwned": false, "is_foreclosure": false, "is_FSBO": false, "is_comingSoon": false, "is_FSBA": false}, "isUndisclosedAddress": false, "isPremierBuilder": false, "state": "NY", "isZillowOwned": false, "moveInReady": false, "newConstructionType": null}], "homeRecommendations": {"blendedRecs": [], "displayShort": ""}, "comps": [{"zpid": 2110027027, "miniCardPhotos": [{"url": "https://photos.zillowstatic.com/p_c/ISbxjiwe3omqsq0000000000.jpg"}], "price": 6295, "currency": "USD", "bedrooms": 3, "bathrooms": 1, "livingArea": 800, "lotSize": 800, "address": {"streetAddress": "234 W 14th St #B", "city": "New York", "state": "NY", "zipcode": "10011"}, "latitude": 40.73906, "longitude": -74.00114, "homeStatus": "FOR_RENT", "homeType": "MULTI_FAMILY", "hdpUrl": "/homedetails/234-W-14th-St-B-New-York-NY-10011/2110027027_zpid/", "listing_sub_type": {"is_newHome": false, "is_forAuction": false, "is_bankOwned": false, "is_foreclosure": false, "is_FSBO": false, "is_comingSoon": false, "is_FSBA": false}, "isUndisclosedAddress": false, "isPremierBuilder": false, "state": "NY", "isZillowOwned": false, "moveInReady": false, "newConstructionType": null}, {"zpid": 2127598782, "miniCardPhotos": [{"url": "https://photos.zillowstatic.com/p_c/ISj3a1cywfamcp0000000000.jpg"}], "price": 6295, "currency": "USD", "bedrooms": 3, "bathrooms": 1, "livingArea": null, "lotSize": null, "address": {"streetAddress": "232 W 14th St APT 4A", "city": "New York", "state": "NY", "zipcode": "10011"}, "latitude": 40.738997, "longitude": -74.001475, "homeStatus": "FOR_RENT", "homeType": "MULTI_FAMILY", "hdpUrl": "/homedetails/232-W-14th-St-APT-4A-New-York-NY-10011/2127598782_zpid/", "listing_sub_type": {"is_newHome": false, "is_forAuction": false, "is_bankOwned": false, "is_foreclosure": false, "is_FSBO": false, "is_comingSoon": false, "is_FSBA": false}, "isUndisclosedAddress": false, "isPremierBuilder": false, "state": "NY", "isZillowOwned": false, "moveInReady": false, "newConstructionType": null}, {"zpid": 2114125820, "miniCardPhotos": [{"url": "https://photos.zillowstatic.com/p_c/ISrh2ndpiphbtc1000000000.jpg"}], "price": 6000, "currency": "USD", "bedrooms": 3, "bathrooms": 1, "livingArea": 1400, "lotSize": null, "address": {"streetAddress": "250 W 14th St APT 4", "city": "New York", "state": "NY", "zipcode": "10011"}, "latitude": 40.73931, "longitude": -74.00217, "homeStatus": "FOR_RENT", "homeType": "MULTI_FAMILY", "hdpUrl": "/homedetails/250-W-14th-St-APT-4-New-York-NY-10011/2114125820_zpid/", "listing_sub_type": {"is_newHome": false, "is_forAuction": false, "is_bankOwned": false, "is_foreclosure": false, "is_FSBO": false, "is_comingSoon": false, "is_FSBA": false}, "isUndisclosedAddress": false, "isPremierBuilder": false, "state": "NY", "isZillowOwned": false, "moveInReady": false, "newConstructionType": null}, {"zpid": 2121591376, "miniCardPhotos": [{"url": "https://photos.zillowstatic.com/p_c/ISrpoxy4ldk56p0000000000.jpg"}], "price": 6095, "currency": "USD", "bedrooms": 3, "bathrooms": 1, "livingArea": null, "lotSize": null, "address": {"streetAddress": "232 W 14th St APT 3B", "city": "New York", "state": "NY", "zipcode": "10011"}, "latitude": 40.738997, "longitude": -74.001475, "homeStatus": "FOR_RENT", "homeType": "MULTI_FAMILY", "hdpUrl": "/homedetails/232-W-14th-St-APT-3B-New-York-NY-10011/2121591376_zpid/", "listing_sub_type": {"is_newHome": false, "is_forAuction": false, "is_bankOwned": false, "is_foreclosure": false, "is_FSBO": false, "is_comingSoon": false, "is_FSBA": false}, "isUndisclosedAddress": false, "isPremierBuilder": false, "state": "NY", "isZillowOwned": false, "moveInReady": false, "newConstructionType": null}, {"zpid": 2110261134, "miniCardPhotos": [{"url": "https://photos.zillowstatic.com/p_c/IS3zzdafu5fhs21000000000.jpg"}], "price": 5958, "currency": "USD", "bedrooms": 3, "bathrooms": 2, "livingArea": 1238, "lotSize": null, "address": {"streetAddress": "205 W 15th St APT 3G", "city": "New York", "state": "NY", "zipcode": "10011"}, "latitude": 40.739484, "longitude": -73.99938, "homeStatus": "FOR_RENT", "homeType": "MULTI_FAMILY", "hdpUrl": "/homedetails/205-W-15th-St-APT-3G-New-York-NY-10011/2110261134_zpid/", "listing_sub_type": {"is_newHome": false, "is_forAuction": false, "is_bankOwned": false, "is_foreclosure": false, "is_FSBO": false, "is_comingSoon": false, "is_FSBA": false}, "isUndisclosedAddress": false, "isPremierBuilder": false, "state": "NY", "isZillowOwned": false, "moveInReady": false, "newConstructionType": null}, {"zpid": 2119921351, "miniCardPhotos": [{"url": "https://photos.zillowstatic.com/p_c/ISfcq0k92iok1b1000000000.jpg"}], "price": 5895, "currency": "USD", "bedrooms": 3, "bathrooms": 1, "livingArea": null, "lotSize": null, "address": {"streetAddress": "232 W 14th St APT 2B", "city": "New York", "state": "NY", "zipcode": "10011"}, "latitude": 40.738997, "longitude": -74.001475, "homeStatus": "FOR_RENT", "homeType": "MULTI_FAMILY", "hdpUrl": "/homedetails/232-W-14th-St-APT-2B-New-York-NY-10011/2119921351_zpid/", "listing_sub_type": {"is_newHome": false, "is_forAuction": false, "is_bankOwned": false, "is_foreclosure": false, "is_FSBO": false, "is_comingSoon": false, "is_FSBA": false}, "isUndisclosedAddress": false, "isPremierBuilder": false, "state": "NY", "isZillowOwned": false, "moveInReady": false, "newConstructionType": null}, {"zpid": 2079289088, "miniCardPhotos": [{"url": "https://photos.zillowstatic.com/p_c/ISfojfg3vwwuxm0000000000.jpg"}], "price": 5995, "currency": "USD", "bedrooms": 1, "bathrooms": 1, "livingArea": null, "lotSize": null, "address": {"streetAddress": "128 W 13th St", "city": "New York", "state": "NY", "zipcode": "10011"}, "latitude": 40.737035, "longitude": -73.998803, "homeStatus": "FOR_RENT", "homeType": "MULTI_FAMILY", "hdpUrl": "/homedetails/128-W-13th-St-New-York-NY-10011/2079289088_zpid/", "listing_sub_type": {"is_newHome": false, "is_forAuction": false, "is_bankOwned": false, "is_foreclosure": false, "is_FSBO": false, "is_comingSoon": false, "is_FSBA": false}, "isUndisclosedAddress": false, "isPremierBuilder": false, "state": "NY", "isZillowOwned": false, "moveInReady": false, "newConstructionType": null}, {"zpid": 2128019936, "miniCardPhotos": [{"url": "https://photos.zillowstatic.com/p_c/ISf4ota99j0boe0000000000.jpg"}], "price": 5679, "currency": "USD", "bedrooms": 3, "bathrooms": 1, "livingArea": 950, "lotSize": null, "address": {"streetAddress": "2 Bank St APT 8", "city": "New York", "state": "NY", "zipcode": "10014"}, "latitude": 40.736994, "longitude": -74.001612, "homeStatus": "FOR_RENT", "homeType": "MULTI_FAMILY", "hdpUrl": "/homedetails/2-Bank-St-APT-8-New-York-NY-10014/2128019936_zpid/", "listing_sub_type": {"is_newHome": false, "is_forAuction": false, "is_bankOwned": false, "is_foreclosure": false, "is_FSBO": false, "is_comingSoon": false, "is_FSBA": false}, "isUndisclosedAddress": false, "isPremierBuilder": false, "state": "NY", "isZillowOwned": false, "moveInReady": false, "newConstructionType": null}], "propertyUpdatePageLink": null, "moveHomeMapLocationLink": null, "propertyEventLogLink": null, "editPropertyHistorylink": null, "lastSoldPrice": null, "taxAssessedValue": null, "taxAssessedYear": null, "listingFeedID": 13668, "isPreforeclosureAuction": false, "postingProductType": "Standard", "marketingName": "", "hideZestimate": false, "comingSoonOnMarketDate": null, "priceChange": null, "datePriceChanged": null, "dateSold": null, "lotSize": null, "hoaFee": null, "mortgageRates": {"thirtyYearFixedRate": 3.375}, "propertyTaxRate": 0.88, "unassistedShowing": null, "responsivePhotos": [{"caption": "", "subjectType": "UNKNOWN", "url": "https://maps.googleapis.com/maps/api/streetview?location=200+W+14th+St%2C+New+York%2C+NY+10011&size=400x300&key=AIzaSyARFMLB1na-BBWf7_R3-5YOQQaHqEJf6RQ&source=outdoor&&signature=fbA_b-neuGUo8_fK2ybNz7Nib2I=", "mixedSources": {"jpeg": [{"url": "https://maps.googleapis.com/maps/api/streetview?location=200+W+14th+St%2C+New+York%2C+NY+10011&size=192x144&key=AIzaSyARFMLB1na-BBWf7_R3-5YOQQaHqEJf6RQ&source=outdoor&&signature=0XTgsUBMiF08PTnJkq1cw78uS7g=", "width": 192}, {"url": "https://maps.googleapis.com/maps/api/streetview?location=200+W+14th+St%2C+New+York%2C+NY+10011&size=384x288&key=AIzaSyARFMLB1na-BBWf7_R3-5YOQQaHqEJf6RQ&source=outdoor&&signature=O0BoGfnePTzwqUXi-jmoXwvt4ZQ=", "width": 384}, {"url": "https://maps.googleapis.com/maps/api/streetview?location=200+W+14th+St%2C+New+York%2C+NY+10011&size=576x432&key=AIzaSyARFMLB1na-BBWf7_R3-5YOQQaHqEJf6RQ&source=outdoor&&signature=QCqhlf-Lgz9EUf0gALBWdmmy2yQ=", "width": 576}, {"url": "https://maps.googleapis.com/maps/api/streetview?location=200+W+14th+St%2C+New+York%2C+NY+10011&size=768x576&key=AIzaSyARFMLB1na-BBWf7_R3-5YOQQaHqEJf6RQ&source=outdoor&&signature=gOy37nHTa3fJB8mDCmMMPIZs1H0=", "width": 768}, {"url": "https://maps.googleapis.com/maps/api/streetview?location=200+W+14th+St%2C+New+York%2C+NY+10011&size=960x720&key=AIzaSyARFMLB1na-BBWf7_R3-5YOQQaHqEJf6RQ&source=outdoor&&signature=BK9TkITwTAfSsJNVS3khvkijrnY=", "width": 960}, {"url": "https://maps.googleapis.com/maps/api/streetview?location=200+W+14th+St%2C+New+York%2C+NY+10011&size=1152x864&key=AIzaSyARFMLB1na-BBWf7_R3-5YOQQaHqEJf6RQ&source=outdoor&&signature=Unf63GDapxijEUPN4XIubZ8ODhU=", "width": 1152}, {"url": "https://maps.googleapis.com/maps/api/streetview?location=200+W+14th+St%2C+New+York%2C+NY+10011&size=1344x1008&key=AIzaSyARFMLB1na-BBWf7_R3-5YOQQaHqEJf6RQ&source=outdoor&&signature=fUVShGnyLE7GR3XVuFyIztTWxG8=", "width": 1344}, {"url": "https://maps.googleapis.com/maps/api/streetview?location=200+W+14th+St%2C+New+York%2C+NY+10011&size=1536x1152&key=AIzaSyARFMLB1na-BBWf7_R3-5YOQQaHqEJf6RQ&source=outdoor&&signature=KkWLcrRFuTSmYS-sbmVeaFT0PMg=", "width": 1536}], "webp": [{"url": "https://maps.googleapis.com/maps/api/streetview?location=200+W+14th+St%2C+New+York%2C+NY+10011&size=192x144&key=AIzaSyARFMLB1na-BBWf7_R3-5YOQQaHqEJf6RQ&source=outdoor&&signature=0XTgsUBMiF08PTnJkq1cw78uS7g=", "width": 192}, {"url": "https://maps.googleapis.com/maps/api/streetview?location=200+W+14th+St%2C+New+York%2C+NY+10011&size=384x288&key=AIzaSyARFMLB1na-BBWf7_R3-5YOQQaHqEJf6RQ&source=outdoor&&signature=O0BoGfnePTzwqUXi-jmoXwvt4ZQ=", "width": 384}, {"url": "https://maps.googleapis.com/maps/api/streetview?location=200+W+14th+St%2C+New+York%2C+NY+10011&size=576x432&key=AIzaSyARFMLB1na-BBWf7_R3-5YOQQaHqEJf6RQ&source=outdoor&&signature=QCqhlf-Lgz9EUf0gALBWdmmy2yQ=", "width": 576}, {"url": "https://maps.googleapis.com/maps/api/streetview?location=200+W+14th+St%2C+New+York%2C+NY+10011&size=768x576&key=AIzaSyARFMLB1na-BBWf7_R3-5YOQQaHqEJf6RQ&source=outdoor&&signature=gOy37nHTa3fJB8mDCmMMPIZs1H0=", "width": 768}, {"url": "https://maps.googleapis.com/maps/api/streetview?location=200+W+14th+St%2C+New+York%2C+NY+10011&size=960x720&key=AIzaSyARFMLB1na-BBWf7_R3-5YOQQaHqEJf6RQ&source=outdoor&&signature=BK9TkITwTAfSsJNVS3khvkijrnY=", "width": 960}, {"url": "https://maps.googleapis.com/maps/api/streetview?location=200+W+14th+St%2C+New+York%2C+NY+10011&size=1152x864&key=AIzaSyARFMLB1na-BBWf7_R3-5YOQQaHqEJf6RQ&source=outdoor&&signature=Unf63GDapxijEUPN4XIubZ8ODhU=", "width": 1152}, {"url": "https://maps.googleapis.com/maps/api/streetview?location=200+W+14th+St%2C+New+York%2C+NY+10011&size=1344x1008&key=AIzaSyARFMLB1na-BBWf7_R3-5YOQQaHqEJf6RQ&source=outdoor&&signature=fUVShGnyLE7GR3XVuFyIztTWxG8=", "width": 1344}, {"url": "https://maps.googleapis.com/maps/api/streetview?location=200+W+14th+St%2C+New+York%2C+NY+10011&size=1536x1152&key=AIzaSyARFMLB1na-BBWf7_R3-5YOQQaHqEJf6RQ&source=outdoor&&signature=KkWLcrRFuTSmYS-sbmVeaFT0PMg=", "width": 1536}]}}], "datePosted": 1592380200000, "zoMarketName": null, "hasBadGeocode": false, "isCamo": false, "streetViewMetadataUrlMediaWallLatLong": "https://maps.googleapis.com/maps/api/streetview/metadata?location=40.738572,-73.999721&key=AIzaSyARFMLB1na-BBWf7_R3-5YOQQaHqEJf6RQ&source=outdoor&signature=VyCxRbTXDkbAirA6ZADkAX-9jjI=", "streetViewMetadataUrlMediaWallAddress": "https://maps.googleapis.com/maps/api/streetview/metadata?location=200%20W%2014th%20St%2C%20New%20York%2C%20NY%2010011&key=AIzaSyARFMLB1na-BBWf7_R3-5YOQQaHqEJf6RQ&source=outdoor&signature=RoY0nZwaLjcO2vPUFtvnZrjWQGU=", "streetViewServiceUrl": "https://proxy.zillowapi.com/street-view-url?zpid=2079087470&address=200%20W%2014th%20St%2C%20New%20York%2C%20NY%2010011&width=512&height=234&key=AIzaSyARFMLB1na-BBWf7_R3-5YOQQaHqEJf6RQ&maxdistance=5280&lat=40.738572&lon=-73.999721&signature=vhlw36gnw4RNMDHRiVPlQiZTIBc=", "streetView": {"addressSources": [{"width": 192, "url": "https://maps.googleapis.com/maps/api/streetview?location=200%20W%2014th%20St%2C%20New%20York%2C%20NY%2010011&size=192x72&key=AIzaSyARFMLB1na-BBWf7_R3-5YOQQaHqEJf6RQ&source=outdoor&signature=rr7G6MeaDkk7KuFh3Kd3En9xffs="}, {"width": 384, "url": "https://maps.googleapis.com/maps/api/streetview?location=200%20W%2014th%20St%2C%20New%20York%2C%20NY%2010011&size=384x144&key=AIzaSyARFMLB1na-BBWf7_R3-5YOQQaHqEJf6RQ&source=outdoor&signature=IkDNKHT_xeJQc6Z9DtWtulavsOc="}, {"width": 768, "url": "https://maps.googleapis.com/maps/api/streetview?location=200%20W%2014th%20St%2C%20New%20York%2C%20NY%2010011&size=768x288&key=AIzaSyARFMLB1na-BBWf7_R3-5YOQQaHqEJf6RQ&source=outdoor&signature=IItMJ6IVHzmDI5UbbwbDbdsA7KE="}], "latLongSources": [{"width": 192, "url": "https://maps.googleapis.com/maps/api/streetview?location=40.738572,-73.999721&size=192x72&key=AIzaSyARFMLB1na-BBWf7_R3-5YOQQaHqEJf6RQ&source=outdoor&signature=zPHv4G4KyrBaBL0VProJBdpIDII="}, {"width": 384, "url": "https://maps.googleapis.com/maps/api/streetview?location=40.738572,-73.999721&size=384x144&key=AIzaSyARFMLB1na-BBWf7_R3-5YOQQaHqEJf6RQ&source=outdoor&signature=HfRjG9_XHxmo-ysp6JL6cHqi_Qc="}, {"width": 768, "url": "https://maps.googleapis.com/maps/api/streetview?location=40.738572,-73.999721&size=768x288&key=AIzaSyARFMLB1na-BBWf7_R3-5YOQQaHqEJf6RQ&source=outdoor&signature=ypaG5NZy84xY_5pTVuMgCfWHusI="}]}, "staticMap": {"sources": [{"width": 192, "url": "https://maps.googleapis.com/maps/api/staticmap?center=40.738572,-73.999721&zoom=15&size=192x144&maptype=roadmap&key=AIzaSyARFMLB1na-BBWf7_R3-5YOQQaHqEJf6RQ&signature=d9GJNwXWXNxsml3FcWtn4I5rYd0="}, {"width": 384, "url": "https://maps.googleapis.com/maps/api/staticmap?center=40.738572,-73.999721&zoom=16&size=384x288&maptype=roadmap&key=AIzaSyARFMLB1na-BBWf7_R3-5YOQQaHqEJf6RQ&signature=tVZDzY3b25ORTDglN56aH6L35FI="}, {"width": 768, "url": "https://maps.googleapis.com/maps/api/staticmap?center=40.738572,-73.999721&zoom=17&size=768x576&maptype=roadmap&key=AIzaSyARFMLB1na-BBWf7_R3-5YOQQaHqEJf6RQ&signature=yy5KLcZIpy0-q-CfvPmeuixvuh8="}]}, "hasPublicVideo": false, "primaryPublicVideo": null, "hasVRModel": null, "vrModel": {"vrModelGuid": null, "revisionId": null, "cdnHost": null}, "tourViewCount": 0, "listingSubType": {"isFSBA": false, "isPending": false, "isNewHome": false, "isForeclosure": false, "isBankOwned": false, "isForAuction": false, "isOpenHouse": false, "isComingSoon": false}, "postingContact": {"name": "Peter Rohani", "photo": {"url": "https://photos.zillowstatic.com/h_i/ISbtwhhvfn4cf01000000000.jpg"}}, "zoMarketBasedABTests": {"StartAnOffer": null}, "postingUrl": "", "floorMaps": [], "streetViewTileImageUrlMediumLatLong": "https://maps.googleapis.com/maps/api/streetview?location=40.738572,-73.999721&size=400x250&key=AIzaSyARFMLB1na-BBWf7_R3-5YOQQaHqEJf6RQ&source=outdoor&signature=FMin6p52FWEY7uuFnzOcrBCqBnM=", "streetViewTileImageUrlMediumAddress": "https://maps.googleapis.com/maps/api/streetview?location=200%20W%2014th%20St%2C%20New%20York%2C%20NY%2010011&size=400x250&key=AIzaSyARFMLB1na-BBWf7_R3-5YOQQaHqEJf6RQ&source=outdoor&signature=cVtIX6NnreBm9X5u1VVMGljrR-4=", "streetViewMetadataUrlMapLightboxAddress": "https://maps.googleapis.com/maps/api/streetview/metadata?location=200%20W%2014th%20St%2C%20New%20York%2C%20NY%2010011&key=AIzaSyBV4lXhV-qzQOegyA3m0_AvGy9F21HIyOQ&source=outdoor&signature=GxrJl7RwKUyPZNSLo_B1uaoX2xk=", "thumb": [{"url": "https://maps.googleapis.com/maps/api/streetview?location=200+W+14th+St%2C+New+York%2C+NY+10011&size=46x46&key=AIzaSyARFMLB1na-BBWf7_R3-5YOQQaHqEJf6RQ&source=outdoor&&signature=5PdJS5ijuo0K-VDt4j9tpUO6zf8="}], "photoCount": 1, "hugePhotos": [{"url": "https://maps.googleapis.com/maps/api/streetview?location=200+W+14th+St%2C+New+York%2C+NY+10011&size=1025x768&key=AIzaSyARFMLB1na-BBWf7_R3-5YOQQaHqEJf6RQ&source=outdoor&&signature=rjY3hfllsfrQGQTo4xx2rhuYwPo=", "width": 1025, "height": 768, "caption": ""}], "responsivePhotosOriginalRatio": [{"caption": "", "mixedSources": {"jpeg": [{"url": "https://maps.googleapis.com/maps/api/streetview?location=200+W+14th+St%2C+New+York%2C+NY+10011&size=800x600&key=AIzaSyARFMLB1na-BBWf7_R3-5YOQQaHqEJf6RQ&source=outdoor&&signature=78CImYlJa-65SWrH2qi66zY1YQ8=", "width": 800}, {"url": "https://maps.googleapis.com/maps/api/streetview?location=200+W+14th+St%2C+New+York%2C+NY+10011&size=1024x768&key=AIzaSyARFMLB1na-BBWf7_R3-5YOQQaHqEJf6RQ&source=outdoor&&signature=28NmewkzIc6P-koiWugYP8kpWBg=", "width": 1024}, {"url": "https://maps.googleapis.com/maps/api/streetview?location=200+W+14th+St%2C+New+York%2C+NY+10011&size=1344x1008&key=AIzaSyARFMLB1na-BBWf7_R3-5YOQQaHqEJf6RQ&source=outdoor&&signature=fUVShGnyLE7GR3XVuFyIztTWxG8=", "width": 1344}, {"url": "https://maps.googleapis.com/maps/api/streetview?location=200+W+14th+St%2C+New+York%2C+NY+10011&size=1536x1152&key=AIzaSyARFMLB1na-BBWf7_R3-5YOQQaHqEJf6RQ&source=outdoor&&signature=KkWLcrRFuTSmYS-sbmVeaFT0PMg=", "width": 1536}], "webp": [{"url": "https://maps.googleapis.com/maps/api/streetview?location=200+W+14th+St%2C+New+York%2C+NY+10011&size=800x600&key=AIzaSyARFMLB1na-BBWf7_R3-5YOQQaHqEJf6RQ&source=outdoor&&signature=78CImYlJa-65SWrH2qi66zY1YQ8=", "width": 800}, {"url": "https://maps.googleapis.com/maps/api/streetview?location=200+W+14th+St%2C+New+York%2C+NY+10011&size=1024x768&key=AIzaSyARFMLB1na-BBWf7_R3-5YOQQaHqEJf6RQ&source=outdoor&&signature=28NmewkzIc6P-koiWugYP8kpWBg=", "width": 1024}, {"url": "https://maps.googleapis.com/maps/api/streetview?location=200+W+14th+St%2C+New+York%2C+NY+10011&size=1344x1008&key=AIzaSyARFMLB1na-BBWf7_R3-5YOQQaHqEJf6RQ&source=outdoor&&signature=fUVShGnyLE7GR3XVuFyIztTWxG8=", "width": 1344}, {"url": "https://maps.googleapis.com/maps/api/streetview?location=200+W+14th+St%2C+New+York%2C+NY+10011&size=1536x1152&key=AIzaSyARFMLB1na-BBWf7_R3-5YOQQaHqEJf6RQ&source=outdoor&&signature=KkWLcrRFuTSmYS-sbmVeaFT0PMg=", "width": 1536}]}}], "isRecentStatusChange": false, "isNonOwnerOccupied": false, "buildingId": "9741", "county": "New York County", "daysOnZillow": 1, "foreclosureTypes": {"isBankOwned": false, "wasNonRetailAuction": false, "wasDefault": false}, "rentalApplicationsAcceptedType": "NOT_ELIGIBLE", "listingTypeDimension": "For Rent", "featuredListingTypeDimension": "organic", "brokerIdDimension": "13501", "keystoneHomeStatus": "ForRent", "pageUrlFragment": "ForRent", "isRentalsLeadCapMet": false, "isPaidMultiFamilyBrokerId": false, "regionString": "New York NY", "isCurrentSignedInUserVerifiedOwner": false, "topNavJson": {"topnav": {"json": {"logo": {"text": "Zillow Real Estate", "href": "/"}, "main": {"sections": [{"link": {"text": "Buy", "href": "/homes/", "classString": "noroute"}, "subsections": [{"title": "New York homes for sale", "links": [[{"text": "Homes for sale", "href": "/new-york-ny/", "classString": "noroute"}, {"text": "Foreclosures", "href": "/new-york-ny/foreclosures/", "classString": "noroute"}, {"text": "For sale by owner", "href": "/new-york-ny/fsbo/", "classString": "noroute"}, {"text": "Open houses", "href": "/new-york-ny/open-house/", "classString": "noroute"}], [{"text": "New construction", "href": "/new-york-ny/new-homes/", "classString": "noroute"}, {"text": "Coming soon", "href": "/new-york-ny/coming-soon/", "classString": "noroute"}, {"text": "Recent home sales", "href": "/new-york-ny/sold/", "classString": "noroute"}, {"text": "All homes", "href": "/browse/homes/"}]]}, {"title": "Resources", "links": [[{"text": "Buyers Guide", "href": "/home-buying-guide/"}, {"text": "Foreclosure center", "href": "/foreclosures/"}, {"text": "Real estate app", "href": "/mobile/realestate/"}, {"text": "Find a buyer's agent", "href": "/real-estate-agent-reviews/?service=Buying"}], [{"text": "Schools in New York", "href": "/new-york-ny/schools/"}]]}]}, {"link": {"text": "Rent", "href": "/homes/for_rent/", "classString": "noroute"}, "subsections": [{"title": "New York rentals", "links": [{"text": "Rental Buildings", "href": "/new-york-ny/rental-buildings/", "classString": "noroute"}, {"text": "Apartments for rent", "href": "/new-york-ny/apartments/", "classString": "noroute"}, {"text": "Houses for rent", "href": "/new-york-ny/rent-houses/", "classString": "noroute"}, {"text": "All rental listings", "href": "/new-york-ny/rentals/", "classString": "noroute"}, {"text": "All rental buildings", "href": "/browse/b/"}]}, {"title": "Renter tools", "links": [{"text": "Applications", "href": "/renter-hub/applications", "gaClickEventObj": {"category": "renter_tools", "action": "click", "label": "applications"}}, {"text": "Payments", "href": "/renter-hub/payments/", "isNoFollow": true, "gaClickEventObj": {"category": "renter_tools", "action": "click", "label": "payments"}}, {"text": "Leases", "href": "/renter-hub/leasing/home/", "gaClickEventObj": {"category": "renter_tools", "action": "click", "label": "leases"}}, {"text": "Affordability calculator", "href": "/rent-affordability-calculator/", "gaClickEventObj": {"category": "renter_tools", "action": "click", "label": "affordability"}}, {"text": "Renters guide", "href": "/rent/guide/", "gaClickEventObj": {"category": "renter_tools", "action": "click", "label": "guide"}}]}], "gaHoverEventObj": {"category": "nav_menu", "action": "mouseover", "label": "rent"}, "gaExpandoClickObj": {"category": "nav_menu", "action": "click_down", "label": "rent"}}, {"link": {"text": "Sell", "href": "/sell/"}, "subsections": [{"title": "Resources", "links": [{"text": "Explore your options", "href": "/sell/"}, {"text": "See your home's Zestimate", "href": "/how-much-is-my-home-worth/"}, {"text": "New York Home values", "href": "/new-york-ny/home-values/"}, {"text": "Sellers guide", "href": "/sellers-guide/"}]}, {"title": "Selling options", "links": [{"text": "Sell with Zillow Offers", "href": "/offers/?t=zo-topnav"}, {"text": "Find a seller's agent", "href": "/new-york-ny/real-estate-agent-reviews/?service=Selling"}, {"text": "Post For Sale by Owner", "href": "/for-sale-by-owner/"}]}]}, {"link": {"text": "Home Loans", "href": "/home-loans/#source=Z_Mortgagestopnav"}, "subsections": [{"title": "Shop mortgages", "links": [{"text": "Mortgage lenders", "href": "/mortgages/#source=Z_Mortgageshovertopnav"}, {"text": "HELOC lenders", "href": "/mortgages/heloc/#source=Z_Mortgageshovertopnav"}, {"text": "Mortgage rates", "href": "/mortgage-rates/ny/new-york/"}, {"text": "Refinance rates", "href": "/refinance/ny/new-york/"}, {"text": "All mortgage rates", "href": "/mortgage/browse/"}]}, {"title": "Calculators", "links": [{"text": "Mortgage calculator", "href": "/mortgage-calculator/"}, {"text": "Refinance calculator", "href": "/mortgage-calculator/refinance-calculator/"}, {"text": "Affordability calculator", "href": "/mortgage-calculator/house-affordability/"}, {"text": "Amortization calculator", "href": "/mortgage-calculator/amortization-schedule-calculator/"}, {"text": "Debt-to-Income calculator", "href": "/mortgage-calculator/debt-to-income-calculator/"}]}, {"title": "Resources", "links": [{"text": "Lender reviews", "href": "/lender-directory/"}, {"text": "Mortgage learning center", "href": "/mortgage-learning/"}, {"text": "Mortgages app", "href": "/mobile/mortgages/"}, {"text": "Lender resource center", "href": "/lender-resources/"}]}]}, {"link": {"text": "Agent finder", "href": "/new-york-ny/real-estate-agent-reviews/"}, "subsections": [{"title": "Looking for pros?", "links": [[{"text": "Real estate agents", "href": "/new-york-ny/real-estate-agent-reviews/"}, {"text": "Property managers", "href": "/new-york-ny/property-manager-reviews/"}, {"text": "Home inspectors", "href": "/new-york-ny/home-inspector-reviews/"}, {"text": "Other pros", "href": "/new-york-ny/real-estate-services-reviews/"}], [{"text": "Home improvement pros", "href": "/new-york-ny/home-improvement-reviews/"}, {"text": "Home builders", "href": "/home-builders/new-york-ny/6181/"}, {"text": "Real estate photographers", "href": "/new-york-ny/photographer-reviews/"}]]}, {"title": "I'm a pro", "links": [[{"text": "Agent advertising", "href": "https://premieragent.zillow.com/products/advertising/?itc=paw_z_sitewide-agentfinder_subnav-advertising_pa-ads_a_null"}, {"text": "Agent resource center", "href": "/agent-resources/"}, {"text": "Create a free agent account", "href": "https://premieragent.zillow.com/products/agent-account/?itc=paw_z_sitewide-agentfinder_subnav-createagentaccount_pa-reg_a_null"}], [{"text": "Real estate business plan", "href": "/agent-resources/agent-toolkit/real-estate-business-plan-template/"}, {"text": "Real estate agent scripts", "href": "/agent-resources/agent-toolkit/real-estate-follow-up-email-templates/"}, {"text": "Listing flyer templates", "href": "/agent-resources/agent-toolkit/real-estate-listing-flyer-templates/"}]]}]}]}, "marketing": {"sections": [{"link": {"text": "Manage Rentals", "href": "/rental-manager/?source=topnav&itc=postbutton_sitenav", "classString": "noroute"}, "classString": "znav-manage-rentals", "id": "manage-rentals", "gaHoverEventObj": {"category": "nav_menu", "action": "mouseover", "label": "manage_rentals"}, "gaExpandoClickObj": {"category": "nav_menu", "action": "click_down", "label": "manage_rentals"}, "subsections": [{"title": "Rental Management Tools", "links": [[{"text": "List a rental", "href": "/rental-manager/post-a-listing?itc=ltr_zw_ltr_zrm-home_tpnv_post-a-listing", "id": "list_a_rental", "classString": "noroute", "gaClickEventObj": {"category": "manage_rentals", "action": "click", "label": "list"}}, {"text": "My Listings", "href": "/rental-manager/select-property?type=listings&source=topnav&itc=postbutton_topnav", "id": "my_listings", "classString": "noroute", "gaClickEventObj": {"category": "manage_rentals", "action": "click", "label": "listing"}}, {"text": "Messages", "href": "/rental-manager/inbox/", "id": "messages", "classString": "noroute", "gaClickEventObj": {"category": "manage_rentals", "action": "click", "label": "messages"}}, {"text": "Applications", "href": "/rental-manager/select-property?type=applications&source=topnav&itc=postbutton_topnav", "id": "applications", "classString": "noroute", "gaClickEventObj": {"category": "manage_rentals", "action": "click", "label": "applications"}}, {"text": "Leases", "href": "/rental-manager/select-property?type=leases&source=topnav&itc=postbutton_topnav", "id": "leases", "classString": "noroute", "gaClickEventObj": {"category": "manage_rentals", "action": "click", "label": "leases"}}, {"text": "Payments", "href": "/rental-manager/select-property?type=payments&source=topnav&itc=postbutton_topnav", "id": "payments", "classString": "noroute", "gaClickEventObj": {"category": "manage_rentals", "action": "click", "label": "payments"}}]]}, {"title": "Learn More", "links": [[{"text": "Zillow Rental Manager", "href": "/rental-manager/?source=topnav&itc=list_zrm_topnav", "id": "zrm", "classString": "noroute", "gaClickEventObj": {"category": "manage_rentals", "action": "click", "label": "about"}}, {"text": "Resource Center", "href": "/rental-manager/resources/", "id": "resource_center", "classString": "noroute", "gaClickEventObj": {"category": "manage_rentals", "action": "click", "label": "resource"}}, {"text": "Help Center", "href": "https://help.zillowrentalmanager.com/hc/en-us/", "id": "help_center", "classString": "noroute", "gaClickEventObj": {"category": "manage_rentals", "action": "click", "label": "help"}}]]}]}, {"link": {"text": "Advertise", "href": "/marketing/advertise/"}}]}, "regLogin": {"sections": [{"link": {"text": "Sign in", "href": "/user/acct/login/"}}, {"link": {"text": "Join", "href": "/user/acct/register/"}}]}, "help": {"sections": [{"link": {"text": "Help", "href": "https://zillow.zendesk.com/hc/en-us/"}}]}, "common": {"home": {"text": "Zillow Real Estate", "href": "/"}, "advertise": {"text": "Advertise", "href": "/advertise/"}, "login": {"text": "Sign in", "href": "/user/acct/login/"}, "register": {"text": "Join", "href": "/user/acct/register/"}}}}, "core": {"js": "https://s.zillowstatic.com/s3/pfs/core-80fe6e46f3627c5d70fe.js"}}, "big": [{"url": "https://maps.googleapis.com/maps/api/streetview?location=200+W+14th+St%2C+New+York%2C+NY+10011&size=550x413&key=AIzaSyARFMLB1na-BBWf7_R3-5YOQQaHqEJf6RQ&source=outdoor&&signature=Zrbr0Z9VqMcx_05-nyIfy_lGyHA=", "width": 550, "subjectType": "UNKNOWN"}], "small": [{"url": "https://maps.googleapis.com/maps/api/streetview?location=200+W+14th+St%2C+New+York%2C+NY+10011&size=316x234&key=AIzaSyARFMLB1na-BBWf7_R3-5YOQQaHqEJf6RQ&source=outdoor&&signature=Af_rF8RteAUxEIAGEre9zUARy-s=", "width": 316, "subjectType": "UNKNOWN"}], "streetViewTileImageUrlHalfWidthLatLong": "https://maps.googleapis.com/maps/api/streetview?location=40.738572,-73.999721&size=512x234&key=AIzaSyARFMLB1na-BBWf7_R3-5YOQQaHqEJf6RQ&source=outdoor&signature=OFiDV4uKji-9mRIRe_7oqsBVCSY=", "streetViewTileImageUrlHalfWidthAddress": "https://maps.googleapis.com/maps/api/streetview?location=200%20W%2014th%20St%2C%20New%20York%2C%20NY%2010011&size=512x234&key=AIzaSyARFMLB1na-BBWf7_R3-5YOQQaHqEJf6RQ&source=outdoor&signature=KiBtnY-gdTRJYbWFHIyl2wIiaI8=", "mapTileGoogleMapUrlSmall": "https://maps.googleapis.com/maps/api/staticmap?center=40.738572,-73.999721&zoom=14&size=280x208&maptype=roadmap&key=AIzaSyARFMLB1na-BBWf7_R3-5YOQQaHqEJf6RQ&scale=2&signature=Mo9M0Rz7uF6ivVmM98uyRhQRys4=", "mapTileGoogleMapUrlFullWidthLightbox": "https://maps.googleapis.com/maps/api/staticmap?center=40.738572,-73.999721&zoom=16&size=1024x234&maptype=roadmap&key=AIzaSyARFMLB1na-BBWf7_R3-5YOQQaHqEJf6RQ&scale=2&signature=B7P-MOg54ivF0SYI3SpNvXENdGE=", "mapTileGoogleMapUrlFullWidthMax": "https://maps.googleapis.com/maps/api/staticmap?center=40.738572,-73.999721&zoom=16&size=1920x234&maptype=roadmap&key=AIzaSyARFMLB1na-BBWf7_R3-5YOQQaHqEJf6RQ&scale=1&signature=ViGI87zPCJWnbi80YkuEeJ4FnAE=", "mapTileGoogleMapUrlSmallWholeZipcode": "https://maps.googleapis.com/maps/api/staticmap?center=40.738572,-73.999721&zoom=12&size=280x208&maptype=roadmap&key=AIzaSyARFMLB1na-BBWf7_R3-5YOQQaHqEJf6RQ&scale=2&signature=tDttNnK659BMxMDy3_b4k-0kOPw=", "mapTileGoogleMapUrlFullWidthLightboxWholeZipcode": "https://maps.googleapis.com/maps/api/staticmap?center=40.738572,-73.999721&zoom=12&size=1024x234&maptype=roadmap&key=AIzaSyARFMLB1na-BBWf7_R3-5YOQQaHqEJf6RQ&scale=2&signature=gLX1zZJJsRBdbZy_5-N5JOeVEq4=", "mapTileGoogleMapUrlFullWidthMaxWholeZipcode": "https://maps.googleapis.com/maps/api/staticmap?center=40.738572,-73.999721&zoom=12&size=1920x234&maptype=roadmap&key=AIzaSyARFMLB1na-BBWf7_R3-5YOQQaHqEJf6RQ&scale=1&signature=adZ7seVt2bKx71fDPNfynK4fUrg=", "localProtections": null}, "viewer": null, "abTests": {"HDP_WOW_PANO": "ON", "HDP_HIGHER_3D": "CONTROL", "KeystoneEvents3DHome": "SEND_EVENT", "z3dNavArrowStyle": null, "rmxTiledPano": "ON", "UnassistedHomeShowingWeb": "TREATMENT", "ARCS_LISTING_AGENT_RELOCATION": "CONTROL", "ARCS_REGION_PHONE": "ON", "ARCS_BAL_RADIO_REMOVAL": "CONTROL", "ARCS_PREAPPROVAL_CHECK": "CONTROL", "ARCS_REMOVE_FINANCING": "CONTROL", "ARCS_THREE_BUTTONS_APPS": "ON_FOR_IOS", "ARCS_THREE_BUTTONS_APPS_ANDROID": "ON", "ACT_THREE_ICON_CTA": "ON", "IMX_LIGHTBOX": "CONTROL", "PERS_SHARED_FAVORITES": "CONTROL", "PERS_SHARED_FAVORITES_FEATURE": "FEATURES_ON", "HDP_WOW_RESO_FACTSFEATURES": "ON", "SXP_HDP_CONTINGENT_V2": "ON", "HDP_OPEN_HOUSE_SAVE": "APP_ONLY", "HDP_OPEN_HOUSE_SAVE_WEB": "CONTROL", "ARCS_WOW_LISTING_AGENT_ATTRIBUTION": "ON", "ARCS_OPAQUE_EXPANSION": "CONTROL", "ARCS_EXPANDED_OPAQUE_SELLER_TITLE": "ON", "AB_DASHBOARD_AA_TEST": "ON", "ACT_THREE_ICON_CTA_TOUR_TEXT": "CONTROL", "ADT_DESKTOP_HDP_CALLOUT": "SAVE_AND_SHARE", "ADT_HDP_CALLOUT": "SAVE_AND_SHARE", "AndroidMagellanHDP": "MAGELLAN_HDP_ON", "AR_CSAT_ONSITE_HDP": "CONTROL", "AR_CSAT_MODAL_HDP_LOAD_DELAY": "CONTROL", "ARCS_APPS_REWRITE": "ON", "ARCS_ASK_A_QUESTION": "CONTROL", "ARCS_BAL_REWRITE": "ON", "ARCS_CLIENT_GEN_LEAD_ID": "CONTROL", "ARCS_FEATURED_REWRITE": "ON", "ARCS_FORECLOSURE_REWRITE": "ON", "ARCS_GET_A_CALL": "ON", "ARCS_INLINE_TOUR": "ON_BUYERS_AGENT", "ARCS_INLINE_TOUR_SECTION": "CONTROL", "ARCS_LEAD_SUBMISSION": "SHADOW_TEST", "ARCS_MY_AGENT_REWRITE": "CONTROL", "ARCS_OPAQUE_EXPANSION_VALUE_PROPS": "CONTROL", "ARCS_OPAQUE_REWRITE": "ON", "ARCS_OWNER_REWRITE": "ON", "ARCS_SCHEDULE_A_TOUR_DESKTOP": "ON", "ARCS_SCHEDULE_A_TOUR_MOBILE": "ON", "ARCS_TOUR_TYPE_TEXT": "VIRTUAL", "ARCS_TOUR_REWRITE": "ON", "ARCS_VIRTUAL_TOUR": "ON", "CDP_SERVICE": "ON", "HDP_3D_WITH_BANNER": "CONTROL", "HDP_AD_MWEB": "CONTROL", "HDP_AND_SEARCH_MAGELLAN": "ON", "HDP_CLASSIC_OM_REFI_UPSELL": "ON", "HDP_COMMUTE_REDESIGN": "CONTROL", "HDP_COMMUTE_SOURCE": "TRULIA_SHADOW", "HDP_DQ_FS_OTHER": "CONTROL", "HDP_DQ_FSBA": "CONTROL", "HDP_DQ_NC": "CONTROL", "HDP_DQ_NFS_RS": "CONTROL", "HDP_DQ_OVERRIDE": "CONTROL", "HDP_FULL_SSR_FS_POT": "ON", "HDP_FULL_SSR_NC": "CONTROL", "HDP_FULL_SSR_NFS": "CONTROL", "HDP_FULL_SSR_RENT": "CONTROL", "HDP_GOOGLE_STREETVIEW": "CONTROL", "HDP_HOMES_FOR_YOU_RECS_PLACEMENT": "CONTROL", "HDP_SKINNY_MAP_AND_FACTS": "ON_SHORT_FACTS", "HDP_SKINNY_MODULE_UPDATES": "ON", "HDP_TOP_NAV_TOP_ONLY": "ON", "HDP_WEBVIEW_ZO_UPSELL": "ON", "HDP_WOW_CLASSIC_MWEB": "CLASSIC_WOW", "HDP_WOW_FSBA": "ON", "HDP_WOW_MORTGAGE_ITERATIONS": "CONTROL", "HDP_WOW_RS_AND_NFS": "CONTROL", "HDP_WOW_RS_AND_NFS_UPSELL": "REFI_UPSELL", "HDP_ZESTIMATE_LIST_PRICE": "V1", "HDP_ZO_ABAD_NOTIFICATION": "ON", "HDP_ZO_DATA_BAL": "CONTROL", "HDP_ZO_WARRANTY_VP": "BOTH_ON", "INSTANTOFFERS_UPSELLS_FORSALE": "BUY_SELL", "IOS_MAGELLAN_HDP": "ON", "NOOP": null, "OM_NOO_ZO_ELIGIBLE_RENTAL_UPSELL": "ON", "RE_BlendedHomeRecsModule": "CONTROL", "RE_COVID_Tours": "REMOVE_TOUR", "RE_LocalLegalProtections": "CONTROL", "RE_PRODUCT_MARKUP": "CONTROL", "SEOTEST__RE_ExpandedDescriptions_percents": [{"treatment": "TEST", "percent": 50}, {"treatment": "CONTROL", "percent": 50}], "RR_MF_OFFICE_HOUR_TOURS": "ON", "RR_REAL_TIME_MF_TOUR_SCHEDULING": "CONTROL", "RR_RENTER_PROFILE_V2": "CONTROL", "RR_RENTER_PROFILE_V2_APPS": "CONTROL", "SEOTEST__PERMITS_GA": "ON", "SXP_HDP_BLUE_TO_RED": "ON", "TR_REQUEST_CREATE_HTH": "CONTROL", "WEB_ZO_HOMEACCESS_SELFTOURNAME": "SELFTOUR", "WEB_ZO_SELFTOURPRIMARY": "ON_PRIMARY", "Z3dHdpPhotoWallTreatment": null, "ZO_ABC_SellingQuestion": "CONTROL", "ZO_Rewards_FSHDP_Upsell": "CONTROL", "ZO_UPSELL_CHECK_FROM_OASIS": "ON", "ZO_OMHDP_Inline_Upsell": "CONTROL", "ZOB_TOUR_ONBOARDING_WEB": "CALENDAR_REMINDER", "VL_WOW_BDP_DESKTOP": "WOW_BDP", "VL_WOW_BDP_MWEB": "WOW_BDP"}}, "price_change": {"property": {"homeValueChartData": [{"points": [{"x": 1454227200000, "y": 6127}, {"x": 1459411200000, "y": 5796}, {"x": 1462003200000, "y": 5760}, {"x": 1464681600000, "y": 5822}, {"x": 1469952000000, "y": 6064}, {"x": 1485849600000, "y": 5969}, {"x": 1514707200000, "y": 4846}, {"x": 1517385600000, "y": 4940}, {"x": 1522483200000, "y": 4641}, {"x": 1525075200000, "y": 4721}, {"x": 1527753600000, "y": 4782}, {"x": 1530345600000, "y": 4692}, {"x": 1556611200000, "y": 4622}, {"x": 1559289600000, "y": 4595}, {"x": 1561881600000, "y": 4572}, {"x": 1564560000000, "y": 4583}, {"x": 1567238400000, "y": 4526}, {"x": 1569830400000, "y": 4447}, {"x": 1575100800000, "y": 4295}, {"x": 1580457600000, "y": 4026}], "name": "Greenwich Village"}, {"points": [{"x": 1435651200000, "y": 2154}, {"x": 1438329600000, "y": 2184}, {"x": 1441008000000, "y": 2213}, {"x": 1443600000000, "y": 2237}, {"x": 1446278400000, "y": 2263}, {"x": 1448870400000, "y": 2280}, {"x": 1451548800000, "y": 2286}, {"x": 1454227200000, "y": 2292}, {"x": 1456732800000, "y": 2298}, {"x": 1459411200000, "y": 2303}, {"x": 1462003200000, "y": 2305}, {"x": 1464681600000, "y": 2306}, {"x": 1467273600000, "y": 2316}, {"x": 1469952000000, "y": 2327}, {"x": 1472630400000, "y": 2338}, {"x": 1475222400000, "y": 2346}, {"x": 1477900800000, "y": 2358}, {"x": 1480492800000, "y": 2362}, {"x": 1483171200000, "y": 2359}, {"x": 1485849600000, "y": 2365}, {"x": 1488268800000, "y": 2368}, {"x": 1490947200000, "y": 2357}, {"x": 1493539200000, "y": 2343}, {"x": 1496217600000, "y": 2344}, {"x": 1498809600000, "y": 2351}, {"x": 1501488000000, "y": 2356}, {"x": 1504166400000, "y": 2363}, {"x": 1506758400000, "y": 2363}, {"x": 1509436800000, "y": 2361}, {"x": 1512028800000, "y": 2351}, {"x": 1514707200000, "y": 2345}, {"x": 1517385600000, "y": 2340}, {"x": 1519804800000, "y": 2333}, {"x": 1522483200000, "y": 2328}, {"x": 1525075200000, "y": 2324}, {"x": 1527753600000, "y": 2332}, {"x": 1530345600000, "y": 2339}, {"x": 1533024000000, "y": 2348}, {"x": 1535702400000, "y": 2349}, {"x": 1538294400000, "y": 2354}, {"x": 1540972800000, "y": 2351}, {"x": 1543564800000, "y": 2352}, {"x": 1546243200000, "y": 2352}, {"x": 1548921600000, "y": 2358}, {"x": 1551340800000, "y": 2355}, {"x": 1554019200000, "y": 2349}, {"x": 1556611200000, "y": 2344}, {"x": 1559289600000, "y": 2344}, {"x": 1561881600000, "y": 2350}, {"x": 1564560000000, "y": 2356}, {"x": 1567238400000, "y": 2361}, {"x": 1569830400000, "y": 2365}, {"x": 1572508800000, "y": 2405}, {"x": 1575100800000, "y": 2431}, {"x": 1577779200000, "y": 2435}, {"x": 1580457600000, "y": 2387}], "name": "New York"}]}}}
][
{"info": {"property": {"id": "UHJvcGVydHk6MjA3OTA4NzQ3MA==", "stateId": 43, "countyId": 2452, "cityId": 6181, "isFeatured": false, "zpid": 2079087470, "city": "New York", "state": "NY", "homeStatus": "FOR_RENT", "isUndisclosedAddress": false, "address": {"streetAddress": "200 W 14th St #3E", "city": "New York", "state": "NY", "zipcode": "10011", "neighborhood": "Greenwich Village", "community": null, "subdivision": null}, "isListingClaimedByCurrentSignedInUser": false, "isCurrentSignedInAgentResponsible": false, "bedrooms": 4, "bathrooms": 1, "price": 6250, "yearBuilt": null, "streetAddress": "200 W 14th St #3E", "zipcode": "10011", "adTargets": {"aamgnrc2": " 3E", "zip": "10011", "aamgnrc1": "200 W 14th St", "mlat": "40.738572", "bd": "4", "fsbid": "13501", "z_listing_image_url": "", "zusr": "true", "city": "New_York", "proptp": "mfh", "pid": "2079087470", "hood": "Greenwich_Village", "listtp": "rent_general", "zguidh": "-8563806705591492294", "premieragent": "no", "price": "6250", "dma": "43", "posting_url": "", "state": "NY", "mlong": "-73.999721", "cnty": "New_York", "prange": "6000-6999"}, "solarPotential": null, "brokerId": 13501, "latitude": 40.738572, "longitude": -73.999721, "countyFIPS": null, "parcelId": null, "currency": "USD", "homeType": "MULTI_FAMILY", "homeFacts": {"aboveFactsAndFeaturesCategories": null, "atAGlanceFacts": [{"factLabel": "Date available", "factValue": "6/25"}, {"factLabel": "Type", "factValue": "Multi Family"}, {"factLabel": "Cooling", "factValue": null}, {"factLabel": "Heating", "factValue": null}, {"factLabel": "Pets", "factValue": "Contact manager"}, {"factLabel": "Parking", "factValue": "No Data"}, {"factLabel": "Laundry", "factValue": null}, {"factLabel": "Deposit & fees", "factValue": null}, {"factLabel": "Price/sqft", "factValue": null}], "categoryDetails": [{"categoryGroupName": "Rental Facts", "categories": [{"categoryName": "", "categoryFacts": [{"factLabel": "Date available", "factValue": "6/25"}, {"factLabel": "Pets", "factValue": "Contact manager"}, {"factLabel": "Posted", "factValue": "1 hour ago"}]}]}, {"categoryGroupName": "Interior Features", "categories": [{"categoryName": "Bedrooms", "categoryFacts": [{"factLabel": "Beds", "factValue": "4"}]}]}, {"categoryGroupName": "Construction", "categories": [{"categoryName": "Type and Style", "categoryFacts": [{"factLabel": null, "factValue": "Multi Family"}]}]}, {"categoryGroupName": "Other", "categories": [{"categoryName": "", "categoryFacts": [{"factLabel": null, "factValue": "No Fee, Nyc Evacuation 5"}]}]}, {"categoryGroupName": "Activity On Zillow", "categories": [{"categoryName": "", "categoryFacts": [{"factLabel": "Days on Zillow", "factValue": "Less than 1"}, {"factLabel": "Views since listing", "factValue": "14"}, {"factLabel": null, "factValue": "0 shoppers saved this home"}]}]}]}, "resoFacts": {"bedrooms": 4, "bathrooms": 1, "bathroomsFull": 0, "bathroomsThreeQuarter": 0, "bathroomsHalf": 0, "bathroomsOneQuarter": 0, "bathroomsPartial": null, "mainLevelBathrooms": null, "rooms": [], "basement": null, "flooring": null, "heating": null, "hasHeating": null, "cooling": null, "hasCooling": null, "appliances": null, "laundryFeatures": null, "fireplaces": null, "fireplaceFeatures": null, "hasFireplace": null, "furnished": false, "commonWalls": null, "buildingArea": null, "livingArea": null, "aboveGradeFinishedArea": null, "belowGradeFinishedArea": null, "virtualTour": "", "parking": null, "parkingFeatures": null, "garageSpaces": null, "coveredSpaces": null, "hasAttachedGarage": false, "hasGarage": null, "openParkingSpaces": null, "hasOpenParking": false, "carportSpaces": null, "hasCarport": false, "otherParking": null, "accessibilityFeatures": null, "levels": null, "stories": null, "entryLevel": null, "entryLocation": null, "hasPrivatePool": null, "hasSpa": null, "spaFeatures": null, "exteriorFeatures": null, "patioAndPorchFeatures": null, "fencing": null, "view": null, "hasView": null, "hasWaterfrontView": null, "waterfrontFeatures": null, "frontageType": null, "frontageLength": null, "topography": null, "woodedArea": null, "vegetation": null, "canRaiseHorses": false, "lotSize": null, "lotSizeDimensions": null, "otherStructures": null, "additionalParcelsDescription": null, "hasAdditionalParcels": false, "parcelNumber": null, "hasAttachedProperty": false, "hasLandLease": false, "landLeaseAmount": null, "zoning": null, "zoningDescription": null, "homeType": "Multi Family", "architecturalStyle": null, "constructionMaterials": null, "foundationDetails": null, "roofType": null, "windowFeatures": null, "propertyCondition": null, "isNewConstruction": false, "yearBuilt": null, "developmentStatus": null, "yearBuiltEffective": null, "onMarketDate": 1592405400000, "builderModel": null, "builderName": "", "hasHomeWarranty": false, "electric": null, "hasElectricOnProperty": null, "gas": null, "sewer": null, "waterSources": null, "utilities": null, "greenBuildingVerificationType": null, "greenEnergyEfficient": null, "greenIndoorAirQuality": null, "greenSustainability": null, "greenWaterConservation": null, "numberOfUnitsInCommunity": null, "numberOfUnitsVacant": null, "storiesTotal": null, "hasPetsAllowed": true, "hasRentControl": false, "buildingFeatures": null, "structureType": null, "buildingName": null, "elementarySchool": "", "elementarySchoolDistrict": "", "middleOrJuniorSchool": "", "middleOrJuniorSchoolDistrict": "", "highSchool": "", "highSchoolDistrict": "", "securityFeatures": null, "communityFeatures": null, "isSeniorCommunity": false, "cityRegion": "New York", "associationFee": null, "hasAssociation": null, "associationAmenities": null, "associationFeeIncludes": null, "associationName": null, "associationPhone": null, "associationFee2": null, "associationName2": null, "associationPhone2": null, "taxAssessedValue": null, "taxAnnualAmount": null, "listingId": null, "buildingAreaSource": null, "otherFacts": [{"name": null, "value": "No Fee"}, {"name": null, "value": "Nyc Evacuation 5"}]}, "description": "*no fee for limited time\nPrime West Village/Chelsea Location! \nEnormous 4 BR apartment with a Large Living Room.\nThis unit is an amazing deal. Many open windows with tons of light, prewar details, hardwood floors, high ceilings, eat in kitchen! \nLocated on 14th street and 7th Avenue most sought after West Village/Chelsea location. Steps to the subway, coffeehouses, restaurants and bars. \nPerfect for shares!", "whatILove": null, "isListedByOwner": false, "contingentListingType": null, "isCommunityPillar": false, "listingCollectionConfig": null, "listingProvider": {"logos": [], "postingWebsiteURL": null, "title": "Listing Provided by", "disclaimerText": null, "enhancedVideoURL": null, "enhancedDescriptionText": null, "showLogos": null, "showNoContactInfoMessage": false, "agentName": "Peter Rohani", "phoneNumber": "(917) 587-2447", "agentLicenseNumber": null, "postingWebsiteLinkText": "AJ Clarke", "postingGroupName": "AJ Clarke", "sourceText": "Source: StreetEasy", "isZRMSourceText": false}, "building": null, "timeOnZillow": "1 hour", "pageViewCount": 14, "favoriteCount": 0, "country": "USA", "hdpUrl": "/homedetails/200-W-14th-St-3E-New-York-NY-10011/2079087470_zpid/", "openHouseSchedule": [], "desktopWebHdpImageLink": "https://maps.googleapis.com/maps/api/streetview?location=200+W+14th+St%2C+New+York%2C+NY+10011&size=550x413&key=AIzaSyARFMLB1na-BBWf7_R3-5YOQQaHqEJf6RQ&source=outdoor&&signature=Zrbr0Z9VqMcx_05-nyIfy_lGyHA=", "brokerageName": "AJ Clarke", "timeZone": "America/New_York", "enhancedBrokerImageUrl": null, "listing_sub_type": {"is_FSBA": false, "is_FSBO": false, "is_pending": false, "is_newHome": false, "is_foreclosure": false, "is_bankOwned": false, "is_forAuction": false, "is_comingSoon": false, "is_openHouse": false}, "livingArea": null, "tourPhotos": [{"url": "https://maps.googleapis.com/maps/api/streetview?location=200+W+14th+St%2C+New+York%2C+NY+10011&size=400x300&key=AIzaSyARFMLB1na-BBWf7_R3-5YOQQaHqEJf6RQ&source=outdoor&&signature=fbA_b-neuGUo8_fK2ybNz7Nib2I="}], "hdpTypeDimension": "ForRent", "providerListingID": "3z9nwkk92wp47", "mlsid": null, "zestimate": null, "propertyTypeDimension": "Multi Family", "hiResImageLink": "https://maps.googleapis.com/maps/api/streetview?location=200+W+14th+St%2C+New+York%2C+NY+10011&size=1025x768&key=AIzaSyARFMLB1na-BBWf7_R3-5YOQQaHqEJf6RQ&source=outdoor&&signature=rjY3hfllsfrQGQTo4xx2rhuYwPo=", "isZillowOwned": false, "tourEligibility": {"isPropertyTourEligible": false}, "isPremierBuilder": false, "moveInReady": false, "newConstructionType": null, "zestimateLowPercent": null, "zestimateHighPercent": null, "rentZestimate": null, "restimateLowPercent": null, "restimateHighPercent": null, "nearbyCities": null, "nearbyNeighborhoods": [{"regionUrl": {"path": "/east-harlem-manhattan-new-york-ny/"}, "name": "East Harlem", "body": {"neighborhood": "East Harlem", "city": "New York", "state": "NY"}}, {"regionUrl": {"path": "/east-village-manhattan-new-york-ny/"}, "name": "East Village", "body": {"neighborhood": "East Village", "city": "New York", "state": "NY"}}, {"regionUrl": {"path": "/gravesend-new-york-ny/"}, "name": "Gravesend", "body": {"neighborhood": "Gravesend", "city": "New York", "state": "NY"}}, {"regionUrl": {"path": "/harlem-manhattan-new-york-ny/"}, "name": "Harlem", "body": {"neighborhood": "Harlem", "city": "New York", "state": "NY"}}, {"regionUrl": {"path": "/lower-east-side-manhattan-new-york-ny/"}, "name": "Lower East Side", "body": {"neighborhood": "Lower East Side", "city": "New York", "state": "NY"}}, {"regionUrl": {"path": "/midwood-new-york-ny/"}, "name": "Midwood", "body": {"neighborhood": "Midwood", "city": "New York", "state": "NY"}}, {"regionUrl": {"path": "/sheepshead-bay-new-york-ny/"}, "name": "Sheepshead Bay", "body": {"neighborhood": "Sheepshead Bay", "city": "New York", "state": "NY"}}, {"regionUrl": {"path": "/upper-east-side-manhattan-new-york-ny/"}, "name": "Upper East Side", "body": {"neighborhood": "Upper East Side", "city": "New York", "state": "NY"}}, {"regionUrl": {"path": "/upper-west-side-new-york-ny/"}, "name": "Upper West Side", "body": {"neighborhood": "Upper West Side", "city": "New York", "state": "NY"}}, {"regionUrl": {"path": "/washington-heights-manhattan-new-york-ny/"}, "name": "Washington Heights", "body": {"neighborhood": "Washington Heights", "city": "New York", "state": "NY"}}], "nearbyZipcodes": [{"regionUrl": {"path": "/manhattan-new-york-ny-10002/"}, "name": "10002", "body": {"zipcode": "10002", "city": "New York", "state": "NY"}}, {"regionUrl": {"path": "/manhattan-new-york-ny-10003/"}, "name": "10003", "body": {"zipcode": "10003", "city": "New York", "state": "NY"}}, {"regionUrl": {"path": "/manhattan-new-york-ny-10009/"}, "name": "10009", "body": {"zipcode": "10009", "city": "New York", "state": "NY"}}, {"regionUrl": {"path": "/manhattan-new-york-ny-10011/"}, "name": "10011", "body": {"zipcode": "10011", "city": "New York", "state": "NY"}}, {"regionUrl": {"path": "/manhattan-new-york-ny-10016/"}, "name": "10016", "body": {"zipcode": "10016", "city": "New York", "state": "NY"}}, {"regionUrl": {"path": "/manhattan-new-york-ny-10019/"}, "name": "10019", "body": {"zipcode": "10019", "city": "New York", "state": "NY"}}, {"regionUrl": {"path": "/manhattan-new-york-ny-10023/"}, "name": "10023", "body": {"zipcode": "10023", "city": "New York", "state": "NY"}}, {"regionUrl": {"path": "/manhattan-new-york-ny-10025/"}, "name": "10025", "body": {"zipcode": "10025", "city": "New York", "state": "NY"}}, {"regionUrl": {"path": "/manhattan-new-york-ny-10029/"}, "name": "10029", "body": {"zipcode": "10029", "city": "New York", "state": "NY"}}, {"regionUrl": {"path": "/manhattan-new-york-ny-10128/"}, "name": "10128", "body": {"zipcode": "10128", "city": "New York", "state": "NY"}}], "nearbyBuildingLinks": [{"buildingUrl": {"path": "/b/1011-carroll-pl-bronx-ny-2Pvs/", "text": "1011 Carroll Pl"}}, {"buildingUrl": {"path": "/b/2825-grand-concourse-bronx-ny-5dvL7F/", "text": "2825 Grand Concourse"}}, {"buildingUrl": {"path": "/b/594-union-ave-bronx-ny-5YHQsG/", "text": "594 Union Ave"}}, {"buildingUrl": {"path": "/b/402-monroe-st-hoboken-nj-5Xxdnd/", "text": "402 Monroe St"}}, {"buildingUrl": {"path": "/b/3030-heath-ave-bronx-ny-2Z2n/", "text": "3030 Heath Ave"}}, {"buildingUrl": {"path": "/b/450-w-58th-st-new-york-ny-3JPj/", "text": "450 W 58th St"}}, {"buildingUrl": {"path": "/b/267-lincoln-pl-brooklyn-ny-3QGk/", "text": "267 Lincoln Pl"}}, {"buildingUrl": {"path": "/b/837-bedford-ave-brooklyn-ny-3bRb/", "text": "837 Bedford Ave"}}, {"buildingUrl": {"path": "/b/41-w-8th-st-new-york-ny-3hzZ/", "text": "41 W 8th St"}}, {"buildingUrl": {"path": "/b/96-n-5th-st-brooklyn-ny-9PNYVn/", "text": "96 N 5th St"}}], "listingSource": null, "listingAccount": null, "ownerAccount": null, "lfaViewPropertyPageUrl": null, "listingOwnerConfigIDs": null, "postingPresentationTypes": null, "abbreviatedAddress": "200 W 14th St #3E", "parentRegion": {"name": "Greenwich Village"}, "boroughId": 12530, "neighborhoodSearchUrl": {"path": "/greenwich-village-manhattan-new-york-ny/"}, "stateSearchUrl": {"path": "/ny/"}, "citySearchUrl": {"text": "Homes in New York", "path": "/new-york-ny/"}, "zipcodeSearchUrl": {"path": "/manhattan-new-york-ny-10011/"}, "boroughSearchUrl": {"text": "Homes in Manhattan", "path": "/manhattan-new-york-ny/"}, "communityUrl": null, "taxHistory": [], "priceHistory": [{"time": 1592405400000, "price": 6250, "priceChangeRate": 0, "event": "Listed for rent", "source": "AJ Clarke", "buyerAgent": null, "sellerAgent": null, "showCountyLink": false, "postingIsRental": true}], "schools": [{"distance": 0.4, "name": "Ps 11 William T Harris", "rating": 7, "level": "Primary", "studentsPerTeacher": 15, "assigned": null, "grades": "PK-5", "link": "https://www.greatschools.org/school?id=02058&state=NY", "type": "Public", "size": 920, "totalCount": 1, "isAssigned": true}, {"distance": 4.4, "name": "Life Sciences Secondary School", "rating": 2, "level": "Middle", "studentsPerTeacher": 14, "assigned": null, "grades": "6-12", "link": "https://www.greatschools.org/school?id=06273&state=NY", "type": "Public", "size": 573, "totalCount": 6, "isAssigned": true}, {"distance": 0.3, "name": "Nyc Lab High School For Collaborative Studies", "rating": 8, "level": "High", "studentsPerTeacher": 14, "assigned": null, "grades": "9-12", "link": "https://www.greatschools.org/school?id=02777&state=NY", "type": "Public", "size": 496, "totalCount": 3, "isAssigned": true}], "schoolSearchUrl": {"path": "/new-york-ny/schools/"}, "festimate": null, "homeValues": {"region": {"zhvi": {"yoy": -1.016681158166757, "value": 652307}, "buyerSellerIndex": {"value": 3}, "shortName": "New York", "link": "/new-york-ny/home-values/"}, "parentRegion": {"zhvi": {"yoy": 1.0331833193301778}}}, "nearbyHomes": [{"zpid": 2111597101, "miniCardPhotos": [{"url": "https://maps.googleapis.com/maps/api/streetview?location=205+W+14th+St%2C+New+York%2C+NY+10011&size=316x234&key=AIzaSyARFMLB1na-BBWf7_R3-5YOQQaHqEJf6RQ&source=outdoor&&signature=QelE6Yl1pu0XG4Hj4vj1uvUFBbU="}], "price": 0, "currency": "USD", "bedrooms": null, "bathrooms": null, "livingArea": null, "lotSize": null, "address": {"streetAddress": "205 W 14th St FL 2", "city": "New York", "state": "NY", "zipcode": "10011"}, "latitude": 40.738627, "longitude": -73.999814, "homeStatus": "OTHER", "homeType": "CONDO", "hdpUrl": "/homedetails/205-W-14th-St-FL-2-New-York-NY-10011/2111597101_zpid/", "listing_sub_type": {"is_newHome": false, "is_forAuction": false, "is_bankOwned": false, "is_foreclosure": false, "is_FSBO": false, "is_comingSoon": false, "is_FSBA": false}, "isUndisclosedAddress": false, "isPremierBuilder": false, "state": "NY", "isZillowOwned": false, "moveInReady": false, "newConstructionType": null}, {"zpid": 2104903983, "miniCardPhotos": [{"url": "https://maps.googleapis.com/maps/api/streetview?location=66+7th+Ave%2C+New+York%2C+NY+10011&size=316x234&key=AIzaSyARFMLB1na-BBWf7_R3-5YOQQaHqEJf6RQ&source=outdoor&&signature=bId0B2cZ9VLQkHiikqFgUzZ6Vm0="}], "price": 604344, "currency": "USD", "bedrooms": 0, "bathrooms": 1, "livingArea": null, "lotSize": null, "address": {"streetAddress": "66 7th Ave APT 5C", "city": "New York", "state": "NY", "zipcode": "10011"}, "latitude": 40.7387, "longitude": -73.999702, "homeStatus": "OTHER", "homeType": "MULTI_FAMILY", "hdpUrl": "/homedetails/66-7th-Ave-APT-5C-New-York-NY-10011/2104903983_zpid/", "listing_sub_type": {"is_newHome": false, "is_forAuction": false, "is_bankOwned": false, "is_foreclosure": false, "is_FSBO": false, "is_comingSoon": false, "is_FSBA": false}, "isUndisclosedAddress": false, "isPremierBuilder": false, "state": "NY", "isZillowOwned": false, "moveInReady": false, "newConstructionType": null}, {"zpid": 2101174982, "miniCardPhotos": [{"url": "https://photos.zillowstatic.com/p_c/ISxzdyelgdzzlz0000000000.jpg"}], "price": 769821, "currency": "USD", "bedrooms": 1, "bathrooms": 1, "livingArea": null, "lotSize": null, "address": {"streetAddress": "66 7th Ave APT 5B", "city": "New York", "state": "NY", "zipcode": "10011"}, "latitude": 40.7387, "longitude": -73.9997, "homeStatus": "OTHER", "homeType": "MULTI_FAMILY", "hdpUrl": "/homedetails/66-7th-Ave-APT-5B-New-York-NY-10011/2101174982_zpid/", "listing_sub_type": {"is_newHome": false, "is_forAuction": false, "is_bankOwned": false, "is_foreclosure": false, "is_FSBO": false, "is_comingSoon": false, "is_FSBA": false}, "isUndisclosedAddress": false, "isPremierBuilder": false, "state": "NY", "isZillowOwned": false, "moveInReady": false, "newConstructionType": null}, {"zpid": 2102123597, "miniCardPhotos": [{"url": "https://photos.zillowstatic.com/p_c/ISd8baqromko621000000000.jpg"}], "price": 776170, "currency": "USD", "bedrooms": 1, "bathrooms": 1, "livingArea": null, "lotSize": null, "address": {"streetAddress": "66 7th Ave APT 3A", "city": "New York", "state": "NY", "zipcode": "10011"}, "latitude": 40.7387, "longitude": -73.9997, "homeStatus": "OTHER", "homeType": "MULTI_FAMILY", "hdpUrl": "/homedetails/66-7th-Ave-APT-3A-New-York-NY-10011/2102123597_zpid/", "listing_sub_type": {"is_newHome": false, "is_forAuction": false, "is_bankOwned": false, "is_foreclosure": false, "is_FSBO": false, "is_comingSoon": false, "is_FSBA": false}, "isUndisclosedAddress": false, "isPremierBuilder": false, "state": "NY", "isZillowOwned": false, "moveInReady": false, "newConstructionType": null}, {"zpid": 2112983545, "miniCardPhotos": [{"url": "https://photos.zillowstatic.com/p_c/IS9hny2w9sx0gd0000000000.jpg"}], "price": 776170, "currency": "USD", "bedrooms": 1, "bathrooms": 1, "livingArea": null, "lotSize": null, "address": {"streetAddress": "66 7th Ave APT 4A", "city": "New York", "state": "NY", "zipcode": "10011"}, "latitude": 40.7387, "longitude": -73.9997, "homeStatus": "OTHER", "homeType": "MULTI_FAMILY", "hdpUrl": "/homedetails/66-7th-Ave-APT-4A-New-York-NY-10011/2112983545_zpid/", "listing_sub_type": {"is_newHome": false, "is_forAuction": false, "is_bankOwned": false, "is_foreclosure": false, "is_FSBO": false, "is_comingSoon": false, "is_FSBA": false}, "isUndisclosedAddress": false, "isPremierBuilder": false, "state": "NY", "isZillowOwned": false, "moveInReady": false, "newConstructionType": null}, {"zpid": 2111135356, "miniCardPhotos": [{"url": "https://photos.zillowstatic.com/p_c/IS9hfs4bv56iyi0000000000.jpg"}], "price": 760061, "currency": "USD", "bedrooms": 1, "bathrooms": 1, "livingArea": null, "lotSize": null, "address": {"streetAddress": "200 W 14th St FRNT 3", "city": "New York", "state": "NY", "zipcode": "10011"}, "latitude": 40.738578, "longitude": -73.999877, "homeStatus": "OTHER", "homeType": "MULTI_FAMILY", "hdpUrl": "/homedetails/200-W-14th-St-FRNT-3-New-York-NY-10011/2111135356_zpid/", "listing_sub_type": {"is_newHome": false, "is_forAuction": false, "is_bankOwned": false, "is_foreclosure": false, "is_FSBO": false, "is_comingSoon": false, "is_FSBA": false}, "isUndisclosedAddress": false, "isPremierBuilder": false, "state": "NY", "isZillowOwned": false, "moveInReady": false, "newConstructionType": null}, {"zpid": 2102382321, "miniCardPhotos": [{"url": "https://photos.zillowstatic.com/p_c/ISp9cdijch0c161000000000.jpg"}], "price": 754352, "currency": "USD", "bedrooms": 1, "bathrooms": 1, "livingArea": null, "lotSize": null, "address": {"streetAddress": "200 W 14th St APT 5S", "city": "New York", "state": "NY", "zipcode": "10011"}, "latitude": 40.73858, "longitude": -73.99988, "homeStatus": "OTHER", "homeType": "MULTI_FAMILY", "hdpUrl": "/homedetails/200-W-14th-St-APT-5S-New-York-NY-10011/2102382321_zpid/", "listing_sub_type": {"is_newHome": false, "is_forAuction": false, "is_bankOwned": false, "is_foreclosure": false, "is_FSBO": false, "is_comingSoon": false, "is_FSBA": false}, "isUndisclosedAddress": false, "isPremierBuilder": false, "state": "NY", "isZillowOwned": false, "moveInReady": false, "newConstructionType": null}, {"zpid": 2080718901, "miniCardPhotos": [{"url": "https://photos.zillowstatic.com/p_c/ISvcl5mril25mm1000000000.jpg"}], "price": 627375, "currency": "USD", "bedrooms": 0, "bathrooms": 1, "livingArea": null, "lotSize": null, "address": {"streetAddress": "56 7th Ave APT 4K", "city": "New York", "state": "NY", "zipcode": "10011"}, "latitude": 40.738385, "longitude": -73.999807, "homeStatus": "OTHER", "homeType": "MULTI_FAMILY", "hdpUrl": "/homedetails/56-7th-Ave-APT-4K-New-York-NY-10011/2080718901_zpid/", "listing_sub_type": {"is_newHome": false, "is_forAuction": false, "is_bankOwned": false, "is_foreclosure": false, "is_FSBO": false, "is_comingSoon": false, "is_FSBA": false}, "isUndisclosedAddress": false, "isPremierBuilder": false, "state": "NY", "isZillowOwned": false, "moveInReady": false, "newConstructionType": null}], "homeRecommendations": {"blendedRecs": [], "displayShort": ""}, "comps": [{"zpid": 2110027027, "miniCardPhotos": [{"url": "https://photos.zillowstatic.com/p_c/ISbxjiwe3omqsq0000000000.jpg"}], "price": 6295, "currency": "USD", "bedrooms": 3, "bathrooms": 1, "livingArea": 800, "lotSize": 800, "address": {"streetAddress": "234 W 14th St #B", "city": "New York", "state": "NY", "zipcode": "10011"}, "latitude": 40.73906, "longitude": -74.00114, "homeStatus": "FOR_RENT", "homeType": "MULTI_FAMILY", "hdpUrl": "/homedetails/234-W-14th-St-B-New-York-NY-10011/2110027027_zpid/", "listing_sub_type": {"is_newHome": false, "is_forAuction": false, "is_bankOwned": false, "is_foreclosure": false, "is_FSBO": false, "is_comingSoon": false, "is_FSBA": false}, "isUndisclosedAddress": false, "isPremierBuilder": false, "state": "NY", "isZillowOwned": false, "moveInReady": false, "newConstructionType": null}, {"zpid": 2127598782, "miniCardPhotos": [{"url": "https://photos.zillowstatic.com/p_c/ISj3a1cywfamcp0000000000.jpg"}], "price": 6295, "currency": "USD", "bedrooms": 3, "bathrooms": 1, "livingArea": null, "lotSize": null, "address": {"streetAddress": "232 W 14th St APT 4A", "city": "New York", "state": "NY", "zipcode": "10011"}, "latitude": 40.738997, "longitude": -74.001475, "homeStatus": "FOR_RENT", "homeType": "MULTI_FAMILY", "hdpUrl": "/homedetails/232-W-14th-St-APT-4A-New-York-NY-10011/2127598782_zpid/", "listing_sub_type": {"is_newHome": false, "is_forAuction": false, "is_bankOwned": false, "is_foreclosure": false, "is_FSBO": false, "is_comingSoon": false, "is_FSBA": false}, "isUndisclosedAddress": false, "isPremierBuilder": false, "state": "NY", "isZillowOwned": false, "moveInReady": false, "newConstructionType": null}, {"zpid": 2121591376, "miniCardPhotos": [{"url": "https://photos.zillowstatic.com/p_c/ISrpoxy4ldk56p0000000000.jpg"}], "price": 6095, "currency": "USD", "bedrooms": 3, "bathrooms": 1, "livingArea": null, "lotSize": null, "address": {"streetAddress": "232 W 14th St APT 3B", "city": "New York", "state": "NY", "zipcode": "10011"}, "latitude": 40.738997, "longitude": -74.001475, "homeStatus": "FOR_RENT", "homeType": "MULTI_FAMILY", "hdpUrl": "/homedetails/232-W-14th-St-APT-3B-New-York-NY-10011/2121591376_zpid/", "listing_sub_type": {"is_newHome": false, "is_forAuction": false, "is_bankOwned": false, "is_foreclosure": false, "is_FSBO": false, "is_comingSoon": false, "is_FSBA": false}, "isUndisclosedAddress": false, "isPremierBuilder": false, "state": "NY", "isZillowOwned": false, "moveInReady": false, "newConstructionType": null}, {"zpid": 2079289088, "miniCardPhotos": [{"url": "https://photos.zillowstatic.com/p_c/ISfojfg3vwwuxm0000000000.jpg"}], "price": 5995, "currency": "USD", "bedrooms": 1, "bathrooms": 1, "livingArea": null, "lotSize": null, "address": {"streetAddress": "128 W 13th St", "city": "New York", "state": "NY", "zipcode": "10011"}, "latitude": 40.737035, "longitude": -73.998803, "homeStatus": "FOR_RENT", "homeType": "MULTI_FAMILY", "hdpUrl": "/homedetails/128-W-13th-St-New-York-NY-10011/2079289088_zpid/", "listing_sub_type": {"is_newHome": false, "is_forAuction": false, "is_bankOwned": false, "is_foreclosure": false, "is_FSBO": false, "is_comingSoon": false, "is_FSBA": false}, "isUndisclosedAddress": false, "isPremierBuilder": false, "state": "NY", "isZillowOwned": false, "moveInReady": false, "newConstructionType": null}, {"zpid": 2114125820, "miniCardPhotos": [{"url": "https://photos.zillowstatic.com/p_c/ISrh2ndpiphbtc1000000000.jpg"}], "price": 6000, "currency": "USD", "bedrooms": 3, "bathrooms": 1, "livingArea": 1400, "lotSize": null, "address": {"streetAddress": "250 W 14th St APT 4", "city": "New York", "state": "NY", "zipcode": "10011"}, "latitude": 40.73931, "longitude": -74.00217, "homeStatus": "FOR_RENT", "homeType": "MULTI_FAMILY", "hdpUrl": "/homedetails/250-W-14th-St-APT-4-New-York-NY-10011/2114125820_zpid/", "listing_sub_type": {"is_newHome": false, "is_forAuction": false, "is_bankOwned": false, "is_foreclosure": false, "is_FSBO": false, "is_comingSoon": false, "is_FSBA": false}, "isUndisclosedAddress": false, "isPremierBuilder": false, "state": "NY", "isZillowOwned": false, "moveInReady": false, "newConstructionType": null}, {"zpid": 2110261134, "miniCardPhotos": [{"url": "https://photos.zillowstatic.com/p_c/IS3zzdafu5fhs21000000000.jpg"}], "price": 5958, "currency": "USD", "bedrooms": 3, "bathrooms": 2, "livingArea": 1238, "lotSize": null, "address": {"streetAddress": "205 W 15th St APT 3G", "city": "New York", "state": "NY", "zipcode": "10011"}, "latitude": 40.739484, "longitude": -73.99938, "homeStatus": "FOR_RENT", "homeType": "MULTI_FAMILY", "hdpUrl": "/homedetails/205-W-15th-St-APT-3G-New-York-NY-10011/2110261134_zpid/", "listing_sub_type": {"is_newHome": false, "is_forAuction": false, "is_bankOwned": false, "is_foreclosure": false, "is_FSBO": false, "is_comingSoon": false, "is_FSBA": false}, "isUndisclosedAddress": false, "isPremierBuilder": false, "state": "NY", "isZillowOwned": false, "moveInReady": false, "newConstructionType": null}, {"zpid": 2119921351, "miniCardPhotos": [{"url": "https://photos.zillowstatic.com/p_c/ISfcq0k92iok1b1000000000.jpg"}], "price": 5895, "currency": "USD", "bedrooms": 3, "bathrooms": 1, "livingArea": null, "lotSize": null, "address": {"streetAddress": "232 W 14th St APT 2B", "city": "New York", "state": "NY", "zipcode": "10011"}, "latitude": 40.738997, "longitude": -74.001475, "homeStatus": "FOR_RENT", "homeType": "MULTI_FAMILY", "hdpUrl": "/homedetails/232-W-14th-St-APT-2B-New-York-NY-10011/2119921351_zpid/", "listing_sub_type": {"is_newHome": false, "is_forAuction": false, "is_bankOwned": false, "is_foreclosure": false, "is_FSBO": false, "is_comingSoon": false, "is_FSBA": false}, "isUndisclosedAddress": false, "isPremierBuilder": false, "state": "NY", "isZillowOwned": false, "moveInReady": false, "newConstructionType": null}, {"zpid": 2128019936, "miniCardPhotos": [{"url": "https://photos.zillowstatic.com/p_c/ISf4ota99j0boe0000000000.jpg"}], "price": 5679, "currency": "USD", "bedrooms": 3, "bathrooms": 1, "livingArea": 950, "lotSize": null, "address": {"streetAddress": "2 Bank St APT 8", "city": "New York", "state": "NY", "zipcode": "10014"}, "latitude": 40.736994, "longitude": -74.001612, "homeStatus": "FOR_RENT", "homeType": "MULTI_FAMILY", "hdpUrl": "/homedetails/2-Bank-St-APT-8-New-York-NY-10014/2128019936_zpid/", "listing_sub_type": {"is_newHome": false, "is_forAuction": false, "is_bankOwned": false, "is_foreclosure": false, "is_FSBO": false, "is_comingSoon": false, "is_FSBA": false}, "isUndisclosedAddress": false, "isPremierBuilder": false, "state": "NY", "isZillowOwned": false, "moveInReady": false, "newConstructionType": null}], "propertyUpdatePageLink": null, "moveHomeMapLocationLink": null, "propertyEventLogLink": null, "editPropertyHistorylink": null, "lastSoldPrice": null, "taxAssessedValue": null, "taxAssessedYear": null, "listingFeedID": 13668, "isPreforeclosureAuction": false, "postingProductType": "Standard", "marketingName": "", "hideZestimate": false, "comingSoonOnMarketDate": null, "priceChange": null, "datePriceChanged": null, "dateSold": null, "lotSize": null, "hoaFee": null, "mortgageRates": {"thirtyYearFixedRate": 3.375}, "propertyTaxRate": 0.88, "unassistedShowing": null, "responsivePhotos": [{"caption": "", "subjectType": "UNKNOWN", "url": "https://maps.googleapis.com/maps/api/streetview?location=200+W+14th+St%2C+New+York%2C+NY+10011&size=400x300&key=AIzaSyARFMLB1na-BBWf7_R3-5YOQQaHqEJf6RQ&source=outdoor&&signature=fbA_b-neuGUo8_fK2ybNz7Nib2I=", "mixedSources": {"jpeg": [{"url": "https://maps.googleapis.com/maps/api/streetview?location=200+W+14th+St%2C+New+York%2C+NY+10011&size=192x144&key=AIzaSyARFMLB1na-BBWf7_R3-5YOQQaHqEJf6RQ&source=outdoor&&signature=0XTgsUBMiF08PTnJkq1cw78uS7g=", "width": 192}, {"url": "https://maps.googleapis.com/maps/api/streetview?location=200+W+14th+St%2C+New+York%2C+NY+10011&size=384x288&key=AIzaSyARFMLB1na-BBWf7_R3-5YOQQaHqEJf6RQ&source=outdoor&&signature=O0BoGfnePTzwqUXi-jmoXwvt4ZQ=", "width": 384}, {"url": "https://maps.googleapis.com/maps/api/streetview?location=200+W+14th+St%2C+New+York%2C+NY+10011&size=576x432&key=AIzaSyARFMLB1na-BBWf7_R3-5YOQQaHqEJf6RQ&source=outdoor&&signature=QCqhlf-Lgz9EUf0gALBWdmmy2yQ=", "width": 576}, {"url": "https://maps.googleapis.com/maps/api/streetview?location=200+W+14th+St%2C+New+York%2C+NY+10011&size=768x576&key=AIzaSyARFMLB1na-BBWf7_R3-5YOQQaHqEJf6RQ&source=outdoor&&signature=gOy37nHTa3fJB8mDCmMMPIZs1H0=", "width": 768}, {"url": "https://maps.googleapis.com/maps/api/streetview?location=200+W+14th+St%2C+New+York%2C+NY+10011&size=960x720&key=AIzaSyARFMLB1na-BBWf7_R3-5YOQQaHqEJf6RQ&source=outdoor&&signature=BK9TkITwTAfSsJNVS3khvkijrnY=", "width": 960}, {"url": "https://maps.googleapis.com/maps/api/streetview?location=200+W+14th+St%2C+New+York%2C+NY+10011&size=1152x864&key=AIzaSyARFMLB1na-BBWf7_R3-5YOQQaHqEJf6RQ&source=outdoor&&signature=Unf63GDapxijEUPN4XIubZ8ODhU=", "width": 1152}, {"url": "https://maps.googleapis.com/maps/api/streetview?location=200+W+14th+St%2C+New+York%2C+NY+10011&size=1344x1008&key=AIzaSyARFMLB1na-BBWf7_R3-5YOQQaHqEJf6RQ&source=outdoor&&signature=fUVShGnyLE7GR3XVuFyIztTWxG8=", "width": 1344}, {"url": "https://maps.googleapis.com/maps/api/streetview?location=200+W+14th+St%2C+New+York%2C+NY+10011&size=1536x1152&key=AIzaSyARFMLB1na-BBWf7_R3-5YOQQaHqEJf6RQ&source=outdoor&&signature=KkWLcrRFuTSmYS-sbmVeaFT0PMg=", "width": 1536}], "webp": [{"url": "https://maps.googleapis.com/maps/api/streetview?location=200+W+14th+St%2C+New+York%2C+NY+10011&size=192x144&key=AIzaSyARFMLB1na-BBWf7_R3-5YOQQaHqEJf6RQ&source=outdoor&&signature=0XTgsUBMiF08PTnJkq1cw78uS7g=", "width": 192}, {"url": "https://maps.googleapis.com/maps/api/streetview?location=200+W+14th+St%2C+New+York%2C+NY+10011&size=384x288&key=AIzaSyARFMLB1na-BBWf7_R3-5YOQQaHqEJf6RQ&source=outdoor&&signature=O0BoGfnePTzwqUXi-jmoXwvt4ZQ=", "width": 384}, {"url": "https://maps.googleapis.com/maps/api/streetview?location=200+W+14th+St%2C+New+York%2C+NY+10011&size=576x432&key=AIzaSyARFMLB1na-BBWf7_R3-5YOQQaHqEJf6RQ&source=outdoor&&signature=QCqhlf-Lgz9EUf0gALBWdmmy2yQ=", "width": 576}, {"url": "https://maps.googleapis.com/maps/api/streetview?location=200+W+14th+St%2C+New+York%2C+NY+10011&size=768x576&key=AIzaSyARFMLB1na-BBWf7_R3-5YOQQaHqEJf6RQ&source=outdoor&&signature=gOy37nHTa3fJB8mDCmMMPIZs1H0=", "width": 768}, {"url": "https://maps.googleapis.com/maps/api/streetview?location=200+W+14th+St%2C+New+York%2C+NY+10011&size=960x720&key=AIzaSyARFMLB1na-BBWf7_R3-5YOQQaHqEJf6RQ&source=outdoor&&signature=BK9TkITwTAfSsJNVS3khvkijrnY=", "width": 960}, {"url": "https://maps.googleapis.com/maps/api/streetview?location=200+W+14th+St%2C+New+York%2C+NY+10011&size=1152x864&key=AIzaSyARFMLB1na-BBWf7_R3-5YOQQaHqEJf6RQ&source=outdoor&&signature=Unf63GDapxijEUPN4XIubZ8ODhU=", "width": 1152}, {"url": "https://maps.googleapis.com/maps/api/streetview?location=200+W+14th+St%2C+New+York%2C+NY+10011&size=1344x1008&key=AIzaSyARFMLB1na-BBWf7_R3-5YOQQaHqEJf6RQ&source=outdoor&&signature=fUVShGnyLE7GR3XVuFyIztTWxG8=", "width": 1344}, {"url": "https://maps.googleapis.com/maps/api/streetview?location=200+W+14th+St%2C+New+York%2C+NY+10011&size=1536x1152&key=AIzaSyARFMLB1na-BBWf7_R3-5YOQQaHqEJf6RQ&source=outdoor&&signature=KkWLcrRFuTSmYS-sbmVeaFT0PMg=", "width": 1536}]}}], "datePosted": 1592380200000, "zoMarketName": null, "hasBadGeocode": false, "isCamo": false, "streetViewMetadataUrlMediaWallLatLong": "https://maps.googleapis.com/maps/api/streetview/metadata?location=40.738572,-73.999721&key=AIzaSyARFMLB1na-BBWf7_R3-5YOQQaHqEJf6RQ&source=outdoor&signature=VyCxRbTXDkbAirA6ZADkAX-9jjI=", "streetViewMetadataUrlMediaWallAddress": "https://maps.googleapis.com/maps/api/streetview/metadata?location=200%20W%2014th%20St%2C%20New%20York%2C%20NY%2010011&key=AIzaSyARFMLB1na-BBWf7_R3-5YOQQaHqEJf6RQ&source=outdoor&signature=RoY0nZwaLjcO2vPUFtvnZrjWQGU=", "streetViewServiceUrl": "https://proxy.zillowapi.com/street-view-url?zpid=2079087470&address=200%20W%2014th%20St%2C%20New%20York%2C%20NY%2010011&width=512&height=234&key=AIzaSyARFMLB1na-BBWf7_R3-5YOQQaHqEJf6RQ&maxdistance=5280&lat=40.738572&lon=-73.999721&signature=vhlw36gnw4RNMDHRiVPlQiZTIBc=", "streetView": {"addressSources": [{"width": 192, "url": "https://maps.googleapis.com/maps/api/streetview?location=200%20W%2014th%20St%2C%20New%20York%2C%20NY%2010011&size=192x72&key=AIzaSyARFMLB1na-BBWf7_R3-5YOQQaHqEJf6RQ&source=outdoor&signature=rr7G6MeaDkk7KuFh3Kd3En9xffs="}, {"width": 384, "url": "https://maps.googleapis.com/maps/api/streetview?location=200%20W%2014th%20St%2C%20New%20York%2C%20NY%2010011&size=384x144&key=AIzaSyARFMLB1na-BBWf7_R3-5YOQQaHqEJf6RQ&source=outdoor&signature=IkDNKHT_xeJQc6Z9DtWtulavsOc="}, {"width": 768, "url": "https://maps.googleapis.com/maps/api/streetview?location=200%20W%2014th%20St%2C%20New%20York%2C%20NY%2010011&size=768x288&key=AIzaSyARFMLB1na-BBWf7_R3-5YOQQaHqEJf6RQ&source=outdoor&signature=IItMJ6IVHzmDI5UbbwbDbdsA7KE="}], "latLongSources": [{"width": 192, "url": "https://maps.googleapis.com/maps/api/streetview?location=40.738572,-73.999721&size=192x72&key=AIzaSyARFMLB1na-BBWf7_R3-5YOQQaHqEJf6RQ&source=outdoor&signature=zPHv4G4KyrBaBL0VProJBdpIDII="}, {"width": 384, "url": "https://maps.googleapis.com/maps/api/streetview?location=40.738572,-73.999721&size=384x144&key=AIzaSyARFMLB1na-BBWf7_R3-5YOQQaHqEJf6RQ&source=outdoor&signature=HfRjG9_XHxmo-ysp6JL6cHqi_Qc="}, {"width": 768, "url": "https://maps.googleapis.com/maps/api/streetview?location=40.738572,-73.999721&size=768x288&key=AIzaSyARFMLB1na-BBWf7_R3-5YOQQaHqEJf6RQ&source=outdoor&signature=ypaG5NZy84xY_5pTVuMgCfWHusI="}]}, "staticMap": {"sources": [{"width": 192, "url": "https://maps.googleapis.com/maps/api/staticmap?center=40.738572,-73.999721&zoom=15&size=192x144&maptype=roadmap&key=AIzaSyARFMLB1na-BBWf7_R3-5YOQQaHqEJf6RQ&signature=d9GJNwXWXNxsml3FcWtn4I5rYd0="}, {"width": 384, "url": "https://maps.googleapis.com/maps/api/staticmap?center=40.738572,-73.999721&zoom=16&size=384x288&maptype=roadmap&key=AIzaSyARFMLB1na-BBWf7_R3-5YOQQaHqEJf6RQ&signature=tVZDzY3b25ORTDglN56aH6L35FI="}, {"width": 768, "url": "https://maps.googleapis.com/maps/api/staticmap?center=40.738572,-73.999721&zoom=17&size=768x576&maptype=roadmap&key=AIzaSyARFMLB1na-BBWf7_R3-5YOQQaHqEJf6RQ&signature=yy5KLcZIpy0-q-CfvPmeuixvuh8="}]}, "hasPublicVideo": false, "primaryPublicVideo": null, "hasVRModel": null, "vrModel": {"vrModelGuid": null, "revisionId": null, "cdnHost": null}, "tourViewCount": 0, "listingSubType": {"isFSBA": false, "isPending": false, "isNewHome": false, "isForeclosure": false, "isBankOwned": false, "isForAuction": false, "isOpenHouse": false, "isComingSoon": false}, "postingContact": {"name": "Peter Rohani", "photo": {"url": "https://photos.zillowstatic.com/h_i/ISbtwhhvfn4cf01000000000.jpg"}}, "zoMarketBasedABTests": {"StartAnOffer": null}, "postingUrl": "", "floorMaps": [], "streetViewTileImageUrlMediumLatLong": "https://maps.googleapis.com/maps/api/streetview?location=40.738572,-73.999721&size=400x250&key=AIzaSyARFMLB1na-BBWf7_R3-5YOQQaHqEJf6RQ&source=outdoor&signature=FMin6p52FWEY7uuFnzOcrBCqBnM=", "streetViewTileImageUrlMediumAddress": "https://maps.googleapis.com/maps/api/streetview?location=200%20W%2014th%20St%2C%20New%20York%2C%20NY%2010011&size=400x250&key=AIzaSyARFMLB1na-BBWf7_R3-5YOQQaHqEJf6RQ&source=outdoor&signature=cVtIX6NnreBm9X5u1VVMGljrR-4=", "streetViewMetadataUrlMapLightboxAddress": "https://maps.googleapis.com/maps/api/streetview/metadata?location=200%20W%2014th%20St%2C%20New%20York%2C%20NY%2010011&key=AIzaSyBV4lXhV-qzQOegyA3m0_AvGy9F21HIyOQ&source=outdoor&signature=GxrJl7RwKUyPZNSLo_B1uaoX2xk=", "thumb": [{"url": "https://maps.googleapis.com/maps/api/streetview?location=200+W+14th+St%2C+New+York%2C+NY+10011&size=46x46&key=AIzaSyARFMLB1na-BBWf7_R3-5YOQQaHqEJf6RQ&source=outdoor&&signature=5PdJS5ijuo0K-VDt4j9tpUO6zf8="}], "photoCount": 1, "hugePhotos": [{"url": "https://maps.googleapis.com/maps/api/streetview?location=200+W+14th+St%2C+New+York%2C+NY+10011&size=1025x768&key=AIzaSyARFMLB1na-BBWf7_R3-5YOQQaHqEJf6RQ&source=outdoor&&signature=rjY3hfllsfrQGQTo4xx2rhuYwPo=", "width": 1025, "height": 768, "caption": ""}], "responsivePhotosOriginalRatio": [{"caption": "", "mixedSources": {"jpeg": [{"url": "https://maps.googleapis.com/maps/api/streetview?location=200+W+14th+St%2C+New+York%2C+NY+10011&size=800x600&key=AIzaSyARFMLB1na-BBWf7_R3-5YOQQaHqEJf6RQ&source=outdoor&&signature=78CImYlJa-65SWrH2qi66zY1YQ8=", "width": 800}, {"url": "https://maps.googleapis.com/maps/api/streetview?location=200+W+14th+St%2C+New+York%2C+NY+10011&size=1024x768&key=AIzaSyARFMLB1na-BBWf7_R3-5YOQQaHqEJf6RQ&source=outdoor&&signature=28NmewkzIc6P-koiWugYP8kpWBg=", "width": 1024}, {"url": "https://maps.googleapis.com/maps/api/streetview?location=200+W+14th+St%2C+New+York%2C+NY+10011&size=1344x1008&key=AIzaSyARFMLB1na-BBWf7_R3-5YOQQaHqEJf6RQ&source=outdoor&&signature=fUVShGnyLE7GR3XVuFyIztTWxG8=", "width": 1344}, {"url": "https://maps.googleapis.com/maps/api/streetview?location=200+W+14th+St%2C+New+York%2C+NY+10011&size=1536x1152&key=AIzaSyARFMLB1na-BBWf7_R3-5YOQQaHqEJf6RQ&source=outdoor&&signature=KkWLcrRFuTSmYS-sbmVeaFT0PMg=", "width": 1536}], "webp": [{"url": "https://maps.googleapis.com/maps/api/streetview?location=200+W+14th+St%2C+New+York%2C+NY+10011&size=800x600&key=AIzaSyARFMLB1na-BBWf7_R3-5YOQQaHqEJf6RQ&source=outdoor&&signature=78CImYlJa-65SWrH2qi66zY1YQ8=", "width": 800}, {"url": "https://maps.googleapis.com/maps/api/streetview?location=200+W+14th+St%2C+New+York%2C+NY+10011&size=1024x768&key=AIzaSyARFMLB1na-BBWf7_R3-5YOQQaHqEJf6RQ&source=outdoor&&signature=28NmewkzIc6P-koiWugYP8kpWBg=", "width": 1024}, {"url": "https://maps.googleapis.com/maps/api/streetview?location=200+W+14th+St%2C+New+York%2C+NY+10011&size=1344x1008&key=AIzaSyARFMLB1na-BBWf7_R3-5YOQQaHqEJf6RQ&source=outdoor&&signature=fUVShGnyLE7GR3XVuFyIztTWxG8=", "width": 1344}, {"url": "https://maps.googleapis.com/maps/api/streetview?location=200+W+14th+St%2C+New+York%2C+NY+10011&size=1536x1152&key=AIzaSyARFMLB1na-BBWf7_R3-5YOQQaHqEJf6RQ&source=outdoor&&signature=KkWLcrRFuTSmYS-sbmVeaFT0PMg=", "width": 1536}]}}], "isRecentStatusChange": false, "isNonOwnerOccupied": false, "buildingId": "9741", "county": "New York County", "daysOnZillow": 1, "foreclosureTypes": {"isBankOwned": false, "wasNonRetailAuction": false, "wasDefault": false}, "rentalApplicationsAcceptedType": "NOT_ELIGIBLE", "listingTypeDimension": "For Rent", "featuredListingTypeDimension": "organic", "brokerIdDimension": "13501", "keystoneHomeStatus": "ForRent", "pageUrlFragment": "ForRent", "isRentalsLeadCapMet": false, "isPaidMultiFamilyBrokerId": false, "regionString": "New York NY", "isCurrentSignedInUserVerifiedOwner": false, "topNavJson": {"topnav": {"json": {"logo": {"text": "Zillow Real Estate", "href": "/"}, "main": {"sections": [{"link": {"text": "Buy", "href": "/homes/", "classString": "noroute"}, "subsections": [{"title": "New York homes for sale", "links": [[{"text": "Homes for sale", "href": "/new-york-ny/", "classString": "noroute"}, {"text": "Foreclosures", "href": "/new-york-ny/foreclosures/", "classString": "noroute"}, {"text": "For sale by owner", "href": "/new-york-ny/fsbo/", "classString": "noroute"}, {"text": "Open houses", "href": "/new-york-ny/open-house/", "classString": "noroute"}], [{"text": "New construction", "href": "/new-york-ny/new-homes/", "classString": "noroute"}, {"text": "Coming soon", "href": "/new-york-ny/coming-soon/", "classString": "noroute"}, {"text": "Recent home sales", "href": "/new-york-ny/sold/", "classString": "noroute"}, {"text": "All homes", "href": "/browse/homes/"}]]}, {"title": "Resources", "links": [[{"text": "Buyers Guide", "href": "/home-buying-guide/"}, {"text": "Foreclosure center", "href": "/foreclosures/"}, {"text": "Real estate app", "href": "/mobile/realestate/"}, {"text": "Find a buyer's agent", "href": "/real-estate-agent-reviews/?service=Buying"}], [{"text": "Schools in New York", "href": "/new-york-ny/schools/"}]]}]}, {"link": {"text": "Rent", "href": "/homes/for_rent/", "classString": "noroute"}, "subsections": [{"title": "New York rentals", "links": [{"text": "Rental Buildings", "href": "/new-york-ny/rental-buildings/", "classString": "noroute"}, {"text": "Apartments for rent", "href": "/new-york-ny/apartments/", "classString": "noroute"}, {"text": "Houses for rent", "href": "/new-york-ny/rent-houses/", "classString": "noroute"}, {"text": "All rental listings", "href": "/new-york-ny/rentals/", "classString": "noroute"}, {"text": "All rental buildings", "href": "/browse/b/"}]}, {"title": "Renter tools", "links": [{"text": "Applications", "href": "/renter-hub/applications", "gaClickEventObj": {"category": "renter_tools", "action": "click", "label": "applications"}}, {"text": "Payments", "href": "/renter-hub/payments/", "isNoFollow": true, "gaClickEventObj": {"category": "renter_tools", "action": "click", "label": "payments"}}, {"text": "Leases", "href": "/renter-hub/leasing/home/", "gaClickEventObj": {"category": "renter_tools", "action": "click", "label": "leases"}}, {"text": "Affordability calculator", "href": "/rent-affordability-calculator/", "gaClickEventObj": {"category": "renter_tools", "action": "click", "label": "affordability"}}, {"text": "Renters guide", "href": "/rent/guide/", "gaClickEventObj": {"category": "renter_tools", "action": "click", "label": "guide"}}]}], "gaHoverEventObj": {"category": "nav_menu", "action": "mouseover", "label": "rent"}, "gaExpandoClickObj": {"category": "nav_menu", "action": "click_down", "label": "rent"}}, {"link": {"text": "Sell", "href": "/sell/"}, "subsections": [{"title": "Resources", "links": [{"text": "Explore your options", "href": "/sell/"}, {"text": "See your home's Zestimate", "href": "/how-much-is-my-home-worth/"}, {"text": "New York Home values", "href": "/new-york-ny/home-values/"}, {"text": "Sellers guide", "href": "/sellers-guide/"}]}, {"title": "Selling options", "links": [{"text": "Sell with Zillow Offers", "href": "/offers/?t=zo-topnav"}, {"text": "Find a seller's agent", "href": "/new-york-ny/real-estate-agent-reviews/?service=Selling"}, {"text": "Post For Sale by Owner", "href": "/for-sale-by-owner/"}]}]}, {"link": {"text": "Home Loans", "href": "/home-loans/#source=Z_Mortgagestopnav"}, "subsections": [{"title": "Shop mortgages", "links": [{"text": "Mortgage lenders", "href": "/mortgages/#source=Z_Mortgageshovertopnav"}, {"text": "HELOC lenders", "href": "/mortgages/heloc/#source=Z_Mortgageshovertopnav"}, {"text": "Mortgage rates", "href": "/mortgage-rates/ny/new-york/"}, {"text": "Refinance rates", "href": "/refinance/ny/new-york/"}, {"text": "All mortgage rates", "href": "/mortgage/browse/"}]}, {"title": "Calculators", "links": [{"text": "Mortgage calculator", "href": "/mortgage-calculator/"}, {"text": "Refinance calculator", "href": "/mortgage-calculator/refinance-calculator/"}, {"text": "Affordability calculator", "href": "/mortgage-calculator/house-affordability/"}, {"text": "Amortization calculator", "href": "/mortgage-calculator/amortization-schedule-calculator/"}, {"text": "Debt-to-Income calculator", "href": "/mortgage-calculator/debt-to-income-calculator/"}]}, {"title": "Resources", "links": [{"text": "Lender reviews", "href": "/lender-directory/"}, {"text": "Mortgage learning center", "href": "/mortgage-learning/"}, {"text": "Mortgages app", "href": "/mobile/mortgages/"}, {"text": "Lender resource center", "href": "/lender-resources/"}]}]}, {"link": {"text": "Agent finder", "href": "/new-york-ny/real-estate-agent-reviews/"}, "subsections": [{"title": "Looking for pros?", "links": [[{"text": "Real estate agents", "href": "/new-york-ny/real-estate-agent-reviews/"}, {"text": "Property managers", "href": "/new-york-ny/property-manager-reviews/"}, {"text": "Home inspectors", "href": "/new-york-ny/home-inspector-reviews/"}, {"text": "Other pros", "href": "/new-york-ny/real-estate-services-reviews/"}], [{"text": "Home improvement pros", "href": "/new-york-ny/home-improvement-reviews/"}, {"text": "Home builders", "href": "/home-builders/new-york-ny/6181/"}, {"text": "Real estate photographers", "href": "/new-york-ny/photographer-reviews/"}]]}, {"title": "I'm a pro", "links": [[{"text": "Agent advertising", "href": "https://premieragent.zillow.com/products/advertising/?itc=paw_z_sitewide-agentfinder_subnav-advertising_pa-ads_a_null"}, {"text": "Agent resource center", "href": "/agent-resources/"}, {"text": "Create a free agent account", "href": "https://premieragent.zillow.com/products/agent-account/?itc=paw_z_sitewide-agentfinder_subnav-createagentaccount_pa-reg_a_null"}], [{"text": "Real estate business plan", "href": "/agent-resources/agent-toolkit/real-estate-business-plan-template/"}, {"text": "Real estate agent scripts", "href": "/agent-resources/agent-toolkit/real-estate-follow-up-email-templates/"}, {"text": "Listing flyer templates", "href": "/agent-resources/agent-toolkit/real-estate-listing-flyer-templates/"}]]}]}]}, "marketing": {"sections": [{"link": {"text": "Manage Rentals", "href": "/rental-manager/?source=topnav&itc=postbutton_sitenav", "classString": "noroute"}, "classString": "znav-manage-rentals", "id": "manage-rentals", "gaHoverEventObj": {"category": "nav_menu", "action": "mouseover", "label": "manage_rentals"}, "gaExpandoClickObj": {"category": "nav_menu", "action": "click_down", "label": "manage_rentals"}, "subsections": [{"title": "Rental Management Tools", "links": [[{"text": "List a rental", "href": "/rental-manager/post-a-listing?itc=ltr_zw_ltr_zrm-home_tpnv_post-a-listing", "id": "list_a_rental", "classString": "noroute", "gaClickEventObj": {"category": "manage_rentals", "action": "click", "label": "list"}}, {"text": "My Listings", "href": "/rental-manager/select-property?type=listings&source=topnav&itc=postbutton_topnav", "id": "my_listings", "classString": "noroute", "gaClickEventObj": {"category": "manage_rentals", "action": "click", "label": "listing"}}, {"text": "Messages", "href": "/rental-manager/inbox/", "id": "messages", "classString": "noroute", "gaClickEventObj": {"category": "manage_rentals", "action": "click", "label": "messages"}}, {"text": "Applications", "href": "/rental-manager/select-property?type=applications&source=topnav&itc=postbutton_topnav", "id": "applications", "classString": "noroute", "gaClickEventObj": {"category": "manage_rentals", "action": "click", "label": "applications"}}, {"text": "Leases", "href": "/rental-manager/select-property?type=leases&source=topnav&itc=postbutton_topnav", "id": "leases", "classString": "noroute", "gaClickEventObj": {"category": "manage_rentals", "action": "click", "label": "leases"}}, {"text": "Payments", "href": "/rental-manager/select-property?type=payments&source=topnav&itc=postbutton_topnav", "id": "payments", "classString": "noroute", "gaClickEventObj": {"category": "manage_rentals", "action": "click", "label": "payments"}}]]}, {"title": "Learn More", "links": [[{"text": "Zillow Rental Manager", "href": "/rental-manager/?source=topnav&itc=list_zrm_topnav", "id": "zrm", "classString": "noroute", "gaClickEventObj": {"category": "manage_rentals", "action": "click", "label": "about"}}, {"text": "Resource Center", "href": "/rental-manager/resources/", "id": "resource_center", "classString": "noroute", "gaClickEventObj": {"category": "manage_rentals", "action": "click", "label": "resource"}}, {"text": "Help Center", "href": "https://help.zillowrentalmanager.com/hc/en-us/", "id": "help_center", "classString": "noroute", "gaClickEventObj": {"category": "manage_rentals", "action": "click", "label": "help"}}]]}]}, {"link": {"text": "Advertise", "href": "/marketing/advertise/"}}]}, "regLogin": {"sections": [{"link": {"text": "Sign in", "href": "/user/acct/login/"}}, {"link": {"text": "Join", "href": "/user/acct/register/"}}]}, "help": {"sections": [{"link": {"text": "Help", "href": "https://zillow.zendesk.com/hc/en-us/"}}]}, "common": {"home": {"text": "Zillow Real Estate", "href": "/"}, "advertise": {"text": "Advertise", "href": "/advertise/"}, "login": {"text": "Sign in", "href": "/user/acct/login/"}, "register": {"text": "Join", "href": "/user/acct/register/"}}}}, "core": {"js": "https://s.zillowstatic.com/s3/pfs/core-80fe6e46f3627c5d70fe.js"}}, "big": [{"url": "https://maps.googleapis.com/maps/api/streetview?location=200+W+14th+St%2C+New+York%2C+NY+10011&size=550x413&key=AIzaSyARFMLB1na-BBWf7_R3-5YOQQaHqEJf6RQ&source=outdoor&&signature=Zrbr0Z9VqMcx_05-nyIfy_lGyHA=", "width": 550, "subjectType": "UNKNOWN"}], "small": [{"url": "https://maps.googleapis.com/maps/api/streetview?location=200+W+14th+St%2C+New+York%2C+NY+10011&size=316x234&key=AIzaSyARFMLB1na-BBWf7_R3-5YOQQaHqEJf6RQ&source=outdoor&&signature=Af_rF8RteAUxEIAGEre9zUARy-s=", "width": 316, "subjectType": "UNKNOWN"}], "streetViewTileImageUrlHalfWidthLatLong": "https://maps.googleapis.com/maps/api/streetview?location=40.738572,-73.999721&size=512x234&key=AIzaSyARFMLB1na-BBWf7_R3-5YOQQaHqEJf6RQ&source=outdoor&signature=OFiDV4uKji-9mRIRe_7oqsBVCSY=", "streetViewTileImageUrlHalfWidthAddress": "https://maps.googleapis.com/maps/api/streetview?location=200%20W%2014th%20St%2C%20New%20York%2C%20NY%2010011&size=512x234&key=AIzaSyARFMLB1na-BBWf7_R3-5YOQQaHqEJf6RQ&source=outdoor&signature=KiBtnY-gdTRJYbWFHIyl2wIiaI8=", "mapTileGoogleMapUrlSmall": "https://maps.googleapis.com/maps/api/staticmap?center=40.738572,-73.999721&zoom=14&size=280x208&maptype=roadmap&key=AIzaSyARFMLB1na-BBWf7_R3-5YOQQaHqEJf6RQ&scale=2&signature=Mo9M0Rz7uF6ivVmM98uyRhQRys4=", "mapTileGoogleMapUrlFullWidthLightbox": "https://maps.googleapis.com/maps/api/staticmap?center=40.738572,-73.999721&zoom=16&size=1024x234&maptype=roadmap&key=AIzaSyARFMLB1na-BBWf7_R3-5YOQQaHqEJf6RQ&scale=2&signature=B7P-MOg54ivF0SYI3SpNvXENdGE=", "mapTileGoogleMapUrlFullWidthMax": "https://maps.googleapis.com/maps/api/staticmap?center=40.738572,-73.999721&zoom=16&size=1920x234&maptype=roadmap&key=AIzaSyARFMLB1na-BBWf7_R3-5YOQQaHqEJf6RQ&scale=1&signature=ViGI87zPCJWnbi80YkuEeJ4FnAE=", "mapTileGoogleMapUrlSmallWholeZipcode": "https://maps.googleapis.com/maps/api/staticmap?center=40.738572,-73.999721&zoom=12&size=280x208&maptype=roadmap&key=AIzaSyARFMLB1na-BBWf7_R3-5YOQQaHqEJf6RQ&scale=2&signature=tDttNnK659BMxMDy3_b4k-0kOPw=", "mapTileGoogleMapUrlFullWidthLightboxWholeZipcode": "https://maps.googleapis.com/maps/api/staticmap?center=40.738572,-73.999721&zoom=12&size=1024x234&maptype=roadmap&key=AIzaSyARFMLB1na-BBWf7_R3-5YOQQaHqEJf6RQ&scale=2&signature=gLX1zZJJsRBdbZy_5-N5JOeVEq4=", "mapTileGoogleMapUrlFullWidthMaxWholeZipcode": "https://maps.googleapis.com/maps/api/staticmap?center=40.738572,-73.999721&zoom=12&size=1920x234&maptype=roadmap&key=AIzaSyARFMLB1na-BBWf7_R3-5YOQQaHqEJf6RQ&scale=1&signature=adZ7seVt2bKx71fDPNfynK4fUrg=", "localProtections": null}, "viewer": null, "abTests": {"HDP_WOW_PANO": "ON", "HDP_HIGHER_3D": "CONTROL", "KeystoneEvents3DHome": "SEND_EVENT", "z3dNavArrowStyle": null, "rmxTiledPano": "ON", "UnassistedHomeShowingWeb": "TREATMENT", "ARCS_LISTING_AGENT_RELOCATION": "CONTROL", "ARCS_REGION_PHONE": "ON", "ARCS_BAL_RADIO_REMOVAL": "CONTROL", "ARCS_PREAPPROVAL_CHECK": "OFF", "ARCS_REMOVE_FINANCING": "CONTROL", "ARCS_THREE_BUTTONS_APPS": "ON_FOR_IOS", "ARCS_THREE_BUTTONS_APPS_ANDROID": "ON", "ACT_THREE_ICON_CTA": "ON", "IMX_LIGHTBOX": "CONTROL", "PERS_SHARED_FAVORITES": "CONTROL", "PERS_SHARED_FAVORITES_FEATURE": "FEATURES_ON", "HDP_WOW_RESO_FACTSFEATURES": "ON", "SXP_HDP_CONTINGENT_V2": "ON", "HDP_OPEN_HOUSE_SAVE": "APP_ONLY", "HDP_OPEN_HOUSE_SAVE_WEB": "CONTROL", "ARCS_WOW_LISTING_AGENT_ATTRIBUTION": "ON", "ARCS_OPAQUE_EXPANSION": "CONTROL", "ARCS_EXPANDED_OPAQUE_SELLER_TITLE": "ON", "AB_DASHBOARD_AA_TEST": "ON", "ACT_THREE_ICON_CTA_TOUR_TEXT": "CONTROL", "ADT_DESKTOP_HDP_CALLOUT": "CONTROL", "ADT_HDP_CALLOUT": "SAVE_AND_SHARE", "AndroidMagellanHDP": "MAGELLAN_HDP_ON", "AR_CSAT_ONSITE_HDP": "CONTROL", "AR_CSAT_MODAL_HDP_LOAD_DELAY": "CONTROL", "ARCS_APPS_REWRITE": "ON", "ARCS_ASK_A_QUESTION": "CONTROL", "ARCS_BAL_REWRITE": "ON", "ARCS_CLIENT_GEN_LEAD_ID": "CONTROL", "ARCS_FEATURED_REWRITE": "ON", "ARCS_FORECLOSURE_REWRITE": "ON", "ARCS_GET_A_CALL": "ON", "ARCS_INLINE_TOUR": "ON_BUYERS_AGENT", "ARCS_INLINE_TOUR_SECTION": "CONTROL", "ARCS_LEAD_SUBMISSION": "CONTROL", "ARCS_MY_AGENT_REWRITE": "CONTROL", "ARCS_OPAQUE_EXPANSION_VALUE_PROPS": "CONTROL", "ARCS_OPAQUE_REWRITE": "ON", "ARCS_OWNER_REWRITE": "ON", "ARCS_SCHEDULE_A_TOUR_DESKTOP": "ON", "ARCS_SCHEDULE_A_TOUR_MOBILE": "ON", "ARCS_TOUR_TYPE_TEXT": "VIRTUAL", "ARCS_TOUR_REWRITE": "ON", "ARCS_VIRTUAL_TOUR": "ON", "CDP_SERVICE": "ON", "HDP_3D_WITH_BANNER": "CONTROL", "HDP_AD_MWEB": "CONTROL", "HDP_AND_SEARCH_MAGELLAN": "ON", "HDP_CLASSIC_OM_REFI_UPSELL": "ON", "HDP_COMMUTE_REDESIGN": "ON_AFTER", "HDP_COMMUTE_SOURCE": "TRULIA_SHADOW", "HDP_DQ_FS_OTHER": "CONTROL", "HDP_DQ_FSBA": "CONTROL", "HDP_DQ_NC": "CONTROL", "HDP_DQ_NFS_RS": "CONTROL", "HDP_DQ_OVERRIDE": "CONTROL", "HDP_FULL_SSR_FS_POT": "ON", "HDP_FULL_SSR_NC": "CONTROL", "HDP_FULL_SSR_NFS": "CONTROL", "HDP_FULL_SSR_RENT": "CONTROL", "HDP_GOOGLE_STREETVIEW": "CONTROL", "HDP_HOMES_FOR_YOU_RECS_PLACEMENT": "CONTROL", "HDP_SKINNY_MAP_AND_FACTS": "ON_SHORT_FACTS", "HDP_SKINNY_MODULE_UPDATES": "ON", "HDP_TOP_NAV_TOP_ONLY": "ON", "HDP_WEBVIEW_ZO_UPSELL": "ON", "HDP_WOW_CLASSIC_MWEB": "CLASSIC_WOW", "HDP_WOW_FSBA": "ON", "HDP_WOW_MORTGAGE_ITERATIONS": "CONTROL", "HDP_WOW_RS_AND_NFS": "CONTROL", "HDP_WOW_RS_AND_NFS_UPSELL": "REFI_UPSELL", "HDP_ZESTIMATE_LIST_PRICE": "V1", "HDP_ZO_ABAD_NOTIFICATION": "ON", "HDP_ZO_DATA_BAL": "CONTROL", "HDP_ZO_WARRANTY_VP": "BOTH_ON", "INSTANTOFFERS_UPSELLS_FORSALE": "BUY_SELL", "IOS_MAGELLAN_HDP": "ON", "NOOP": null, "OM_NOO_ZO_ELIGIBLE_RENTAL_UPSELL": "ON", "RE_BlendedHomeRecsModule": "CONTROL", "RE_COVID_Tours": "REMOVE_TOUR", "RE_LocalLegalProtections": "CONTROL", "RE_PRODUCT_MARKUP": "CONTROL", "SEOTEST__RE_ExpandedDescriptions_percents": [{"treatment": "TEST", "percent": 50}, {"treatment": "CONTROL", "percent": 50}], "RR_MF_OFFICE_HOUR_TOURS": "ON", "RR_REAL_TIME_MF_TOUR_SCHEDULING": "CONTROL", "RR_RENTER_PROFILE_V2": "CONTROL", "RR_RENTER_PROFILE_V2_APPS": "CONTROL", "SEOTEST__PERMITS_GA": "ON", "SXP_HDP_BLUE_TO_RED": "ON", "TR_REQUEST_CREATE_HTH": "CONTROL", "WEB_ZO_HOMEACCESS_SELFTOURNAME": "SELFTOUR", "WEB_ZO_SELFTOURPRIMARY": "ON_PRIMARY", "Z3dHdpPhotoWallTreatment": null, "ZO_ABC_SellingQuestion": "CONTROL", "ZO_Rewards_FSHDP_Upsell": "CONTROL", "ZO_UPSELL_CHECK_FROM_OASIS": "ON", "ZO_OMHDP_Inline_Upsell": "CONTROL", "ZOB_TOUR_ONBOARDING_WEB": "CALENDAR_REMINDER", "VL_WOW_BDP_DESKTOP": "WOW_BDP", "VL_WOW_BDP_MWEB": "WOW_BDP"}}, "price_change": {"property": {"homeValueChartData": [{"points": [{"x": 1454227200000, "y": 6127}, {"x": 1459411200000, "y": 5796}, {"x": 1462003200000, "y": 5760}, {"x": 1464681600000, "y": 5822}, {"x": 1469952000000, "y": 6064}, {"x": 1485849600000, "y": 5969}, {"x": 1514707200000, "y": 4846}, {"x": 1517385600000, "y": 4940}, {"x": 1522483200000, "y": 4641}, {"x": 1525075200000, "y": 4721}, {"x": 1527753600000, "y": 4782}, {"x": 1530345600000, "y": 4692}, {"x": 1556611200000, "y": 4622}, {"x": 1559289600000, "y": 4595}, {"x": 1561881600000, "y": 4572}, {"x": 1564560000000, "y": 4583}, {"x": 1567238400000, "y": 4526}, {"x": 1569830400000, "y": 4447}, {"x": 1575100800000, "y": 4295}, {"x": 1580457600000, "y": 4026}], "name": "Greenwich Village"}, {"points": [{"x": 1435651200000, "y": 2154}, {"x": 1438329600000, "y": 2184}, {"x": 1441008000000, "y": 2213}, {"x": 1443600000000, "y": 2237}, {"x": 1446278400000, "y": 2263}, {"x": 1448870400000, "y": 2280}, {"x": 1451548800000, "y": 2286}, {"x": 1454227200000, "y": 2292}, {"x": 1456732800000, "y": 2298}, {"x": 1459411200000, "y": 2303}, {"x": 1462003200000, "y": 2305}, {"x": 1464681600000, "y": 2306}, {"x": 1467273600000, "y": 2316}, {"x": 1469952000000, "y": 2327}, {"x": 1472630400000, "y": 2338}, {"x": 1475222400000, "y": 2346}, {"x": 1477900800000, "y": 2358}, {"x": 1480492800000, "y": 2362}, {"x": 1483171200000, "y": 2359}, {"x": 1485849600000, "y": 2365}, {"x": 1488268800000, "y": 2368}, {"x": 1490947200000, "y": 2357}, {"x": 1493539200000, "y": 2343}, {"x": 1496217600000, "y": 2344}, {"x": 1498809600000, "y": 2351}, {"x": 1501488000000, "y": 2356}, {"x": 1504166400000, "y": 2363}, {"x": 1506758400000, "y": 2363}, {"x": 1509436800000, "y": 2361}, {"x": 1512028800000, "y": 2351}, {"x": 1514707200000, "y": 2345}, {"x": 1517385600000, "y": 2340}, {"x": 1519804800000, "y": 2333}, {"x": 1522483200000, "y": 2328}, {"x": 1525075200000, "y": 2324}, {"x": 1527753600000, "y": 2332}, {"x": 1530345600000, "y": 2339}, {"x": 1533024000000, "y": 2348}, {"x": 1535702400000, "y": 2349}, {"x": 1538294400000, "y": 2354}, {"x": 1540972800000, "y": 2351}, {"x": 1543564800000, "y": 2352}, {"x": 1546243200000, "y": 2352}, {"x": 1548921600000, "y": 2358}, {"x": 1551340800000, "y": 2355}, {"x": 1554019200000, "y": 2349}, {"x": 1556611200000, "y": 2344}, {"x": 1559289600000, "y": 2344}, {"x": 1561881600000, "y": 2350}, {"x": 1564560000000, "y": 2356}, {"x": 1567238400000, "y": 2361}, {"x": 1569830400000, "y": 2365}, {"x": 1572508800000, "y": 2405}, {"x": 1575100800000, "y": 2431}, {"x": 1577779200000, "y": 2435}, {"x": 1580457600000, "y": 2387}], "name": "New York"}]}}}
]